long,lat,nro_exp,nomenclacion_par,fecha_registro_p,direccion,direccion_normalizada,tipo_obra,metros_cuadrados_obra,calle_nombre,calle_altura,barrio,comuna,comuna,codigo_postal,codigo_postal_argentino
-58.4980998697183,-34.5934875416082,34643512/18,15-71-30-21,2019-07-12,GUTENBERG 3023/27,GUTENBERG 3023,Obra Mayor,121.33,GUTENBERG,3023,Agronomia,15,Comuna 15,1419,C1419IDI
-58.4953495785954,-34.5943273453435,26241573/18,15-71-42-29a,2019-06-25,NAVARRO 2923,NAVARRO 2923,Obra Media,520.85,NAVARRO,2923,Agronomia,15,Comuna 15,1419,C1419HTE
-58.4887571903492,-34.5909977977615,10525744/18,15-61-134-12a,2019-08-13,ZAMUDIO 3549,ZAMUDIO 3549,Micro Obra,,ZAMUDIO,3549,Agronomia,15,Comuna 15,1419,C1419EFA
-58.4130496513487,-34.6139895506884,32754162/18,09-28-023-31,2019-07-19,S.DE LORIA 371/85,SANCHEZ DE LORIA 371,Obra Media,642,SANCHEZ DE LORIA,371,Almagro,5,Comuna 5,1173,C1173ACG
-58.4201850921523,-34.6100426626626,31134596/18,7-17-086-03A,2019-08-30,J.SALGUERO 76/82,"SALGUERO, JERONIMO 76",Obra Mayor,6100.61,"SALGUERO, JERONIMO",76,Almagro,5,Comuna 5,1177,C1177ADB
-58.4231683762875,-34.6084199396153,8756720/17,7-17-67-26/27,2019-08-26,DIAZ VELEZ 4001/09,DIAZ VELEZ AV. 4001,Obra Menor,41.59,DIAZ VELEZ AV.,4001,Almagro,5,Comuna 5,1200,C1200AAH
-58.4285386374425,-34.6084272495275,26746895/15,9-17-28-18g,2019-06-28,D.VELEZ 4363/69,DIAZ VELEZ AV. 4363,Obra Media,788.32,DIAZ VELEZ AV.,4363,Almagro,5,Comuna 5,1200,C1200AAK
-58.4186313159364,-34.6034081702219,23544795/18,07-17-106-2l,2019-07-15,CORRIENTES 3841/49,CORRIENTES AV. 3841,Obra Mayor,915.44,CORRIENTES AV.,3841,Almagro,5,Comuna 5,1194,C1194AAE
-58.4166226409123,-34.6039713391011,25747086/19,9-13-17-8A,2019-09-27,CORRIENTES 3684/700,CORRIENTES AV. 3684,Obra Menor,279.14,CORRIENTES AV.,3684,Almagro,5,Comuna 5,1194,C1194AAP
-58.4153236653593,-34.6035676400066,25057060/18,09-13-29-21,2019-08-27,CORRIENTES 3581/89,CORRIENTES AV. 3581,Obra Media,1632.53,CORRIENTES AV.,3581,Almagro,5,Comuna 5,1194,C1194AAB
-58.4202253552458,-34.6134478662846,38054232/15,6-36-119-9,2019-07-11,C.BARROS 130/32,CASTRO BARROS AV. 130,Micro Obra,,CASTRO BARROS AV.,130,Almagro,5,Comuna 5,1178,C1178AAD
-58.4263376473092,-34.6161805125738,20278044/19,36-29-04,2019-09-30,BELGRANO 4226/28,BELGRANO 4226,Obra Menor,109,BELGRANO,4226,Almagro,5,Comuna 5,1210,C1210AAX
-58.41482655015,-34.6092233497424,35315824/18,9-13-24-9,2019-09-27,B.MITRE 3413/15,"MITRE, BARTOLOME 3413",Obra Media,1048.83,"MITRE, BARTOLOME",3413,Almagro,5,Comuna 5,1201,C1201AAM
-58.424467978857,-34.6154763692461,15450486/19,6-36-62-18,2019-08-22,33 ORIENTALES 160,TREINTA Y TRES ORIENTALES 160,Micro Obra,21.61,TREINTA Y TRES ORIENTALES,160,Almagro,5,Comuna 5,1182,C1182AED
-58.4267553048277,-34.5981456821526,19339341/19,07-17-036-002,2019-07-16,EST.DE ISRAEL 4316,ESTADO DE ISRAEL AV. 4316,Micro Obra,,ESTADO DE ISRAEL AV.,4316,Almagro,5,Comuna 5,1185,C1185AAP
-58.4268918470764,-34.5982402250974,29524017/17,07-17-36-04,2019-07-10,EST.DE ISRAEL 4334,ESTADO DE ISRAEL AV. 4334,Obra Mayor,2254.2,ESTADO DE ISRAEL AV.,4334,Almagro,5,Comuna 5,1185,C1185AAP
-58.4202370683851,-34.6008897349387,32558681/18,7-17-094-010,2019-06-27,G.VIEJA 3978,GUARDIA VIEJA 3978,Obra Media,1072.17,GUARDIA VIEJA,3978,Almagro,5,Comuna 5,1192,C1192AAN
-58.4142404846959,-34.607606540511,35068800/18,9-13-36-15,2019-09-04,GALLO 78,GALLO 78,Obra Media,1865.15,GALLO,78,Almagro,5,Comuna 5,1172,C1172ABB
-58.420901752857,-34.600322659413,24681865/19,7-17-83-37,2019-09-27,MEDRANO 828,MEDRANO AV. 828,Micro Obra,,MEDRANO AV.,828,Almagro,5,Comuna 5,1179,C1179AAP
-58.4277161493497,-34.6205152341697,10590783/19,6-36-11-23,2019-08-29,MEXICO 4381,MEXICO 4381,Micro Obra,,MEXICO,4381,Almagro,5,Comuna 5,1223,C1223ACK
-58.4230745439899,-34.6071264619005,33505174/18,7-17-68-9,2019-07-19,POTOSI 4005,POTOSI 4005,Obra Mayor,695.82,POTOSI,4005,Almagro,5,Comuna 5,1199,C1199ACG
-58.4279208943632,-34.5996578842767,29861522/18,7-17-35-18,2019-08-21,YATAY 1031,YATAY 1031,Obra Media,1443.69,YATAY,1031,Almagro,5,Comuna 5,1184,C1184ADS
-58.4039515666448,-34.6131087223467,5511681/19,10-20-140-1B,2019-08-15,MORENO 2681,MORENO 2681,Micro Obra,,MORENO,2681,Balvanera,3,Comuna 3,1094,C1094ABQ
-58.3998568413585,-34.6181979908092,29912720/18,10-20-22-15,2019-07-15,MATHEU 768/70,MATHEU 768,Obra Mayor,1091.27,MATHEU,768,Balvanera,3,Comuna 3,1219,C1219AAD
-58.4124595136374,-34.602709362274,15030891/19,9-13-52-8,2019-08-20,GUARDA VIEJA 3380/82,GUARDIA VIEJA 3380,Obra Menor,41.63,GUARDIA VIEJA,3380,Balvanera,3,Comuna 3,1192,C1192AAB
-58.4086458878798,-34.6056786246793,12379607/16,09-13-79-42,2019-08-08,ECUADOR 374/80,ECUADOR 374,Obra Media,808.71,ECUADOR,374,Balvanera,3,Comuna 3,1214,C1214ACD
-58.407409497781,-34.6190281330443,33204158/18,9-28-50-31b,2019-06-28,CHILE 2970/80,CHILE 2970,Obra Mayor,5914.7,CHILE,2970,Balvanera,3,Comuna 3,1221,C1221ABB
-58.4094326295468,-34.6034258757113,26752049/18,9-13-70-05,2019-09-16,C.GARDEL 3158/62,"GARDEL, CARLOS 3158",Obra Media,1568.86,"GARDEL, CARLOS",3158,Balvanera,3,Comuna 3,1215,C1215AAB
-58.3988300150781,-34.6121925382116,33935729/18,20-040-010,2019-07-19,A.ALSINA 2298,"ALSINA, ADOLFO 2298",Obra Mayor,1304.72,"ALSINA, ADOLFO",2298,Balvanera,3,Comuna 3,1090,C1090AAJ
-58.3983257816087,-34.6069227938193,13422157/18,11-09-44-30,2019-08-08,J.D.PERON 2237,"PERON, JUAN DOMINGO, TTE. GENERAL 2237",Obra Media,2419.18,"PERON, JUAN DOMINGO, TTE. GENERAL",2237,Balvanera,3,Comuna 3,1040,C1040AAI
-58.3961034049307,-34.6034966711961,26690896/16,11-9-62-7a,2019-09-27,LAVALLE 2042,LAVALLE 2042,Obra Media,2043.24,LAVALLE,2042,Balvanera,3,Comuna 3,1051,C1051ABF
-58.4001188560788,-34.6030733880891,22182980/19,2-9-39-28,2019-08-07,LAVALLE 2337,LAVALLE 2337,Micro Obra,,LAVALLE,2337,Balvanera,3,Comuna 3,1052,C1052AAA
-58.3937355349503,-34.6147868337598,15694425/19,10-20-62-100,2019-06-14,VENEZUELA 1933,REPUBLICA BOLIVARIANA DE VENEZUELA 1933,Micro Obra,,REPUBLICA BOLIVARIANA DE VENEZUELA,1933,Balvanera,3,Comuna 3,1096,C1096ABG
-58.4073128927725,-34.6004803459636,22777835/19,9-13-84-16,2019-08-08,VIAMONTE 2979,VIAMONTE 2979,Micro Obra,,VIAMONTE,2979,Balvanera,3,Comuna 3,1213,C1213ACE
-58.4710556967016,-34.5688430938351,5659771/18,16-39-05-7B,2019-07-11,MENDOZA 3775,MENDOZA 3775,Obra Media,967,MENDOZA,3775,Belgrano,13,Comuna 13,1430,C1430BRI
-58.4600802739293,-34.5544624821856,10303918/17,16-27-25-09,2019-07-31,CUBA 2791,CUBA 2791,Micro Obra,,CUBA,2791,Belgrano,13,Comuna 13,1428,C1428AES
-58.4603897741917,-34.5646347679645,31978887/18,16-39-69-006J,2019-07-11,VIDAL 2074/80,VIDAL 2074,Obra Mayor,5614.41,VIDAL,2074,Belgrano,13,Comuna 13,1428,C1428CSF
-58.4383824631943,-34.5542271991066,20438142/16,16-25-109-2a,2019-09-17,SUCRE 812/18,"SUCRE, ANTONIO JOSE DE, MCAL. 812",Micro Obra,,"SUCRE, ANTONIO JOSE DE, MCAL.",812,Belgrano,13,Comuna 13,1428,C1428DUF
-58.455573365668,-34.5546002917201,16150783/19,16-27-57B-2a,2019-07-12,ROOSEVELDT 1872/76,ROOSEVELT FRANKLIN D. 1872,Obra Mayor,1716.3,ROOSEVELT FRANKLIN D.,1872,Belgrano,13,Comuna 13,1428,C1428BNH
-58.4451500589871,-34.559071946286,32603686/18,16-25-67-15d,2019-09-16,LIBERTADOR 5723/47,DEL LIBERTADOR AV. 5723,Obra Mayor,35828.66,DEL LIBERTADOR AV.,5723,Belgrano,13,Comuna 13,1428,C1428ARA
-58.4583750102643,-34.5575915091991,16948216/19,16-25-14-5/6A/6B,2019-07-18,MONROE 2256/72,MONROE 2256,Micro Obra,,MONROE,2256,Belgrano,13,Comuna 13,1428,C1428BLJ
-58.4520441810861,-34.5541059140451,29593287/19,16-25-59-26,2019-09-27,MONTAÑESES 2474/76,MONTAÑESES 2474,Obra Menor,162.05,MONTAÑESES,2474,,13,,,
-58.4656848868626,-34.565974607996,21642777/19,16-39-42-03,2019-09-24,MENDOZA 3262/66,MENDOZA 3262,Obra Media,1708.5,MENDOZA,3262,Belgrano,13,Comuna 13,1428,C1428DLF
-58.4520441810861,-34.5541059140451,33184981/18,16-25-59-26,2019-07-11,MONTAÑESES 2474/76,MONTAÑESES 2474,Obra Mayor,785.59,MONTAÑESES,2474,,13,,,
-58.4501041110439,-34.5640994279369,4108700/19,17-23-53-3C,2019-06-27,HERNANDEZ 2030/80,"HERNANDEZ, JOSE 2030",Obra Menor,32.96,"HERNANDEZ, JOSE",2030,Belgrano,13,Comuna 13,1426,C1426EOJ
-58.4439689234921,-34.5563032803941,35221371/18,16-25-82-9d,2019-06-19,ECHEVERRIA 1238/64,ECHEVERRIA 1238,Obra Mayor,2596.36,ECHEVERRIA,1238,Belgrano,13,Comuna 13,1428,C1428DQN
-58.4417350119755,-34.5524386500889,17904570/19,16-25-105-38,2019-07-29,DRAGONES 2140/42,DRAGONES 2140,Obra Mayor,475.08,DRAGONES,2140,Belgrano,13,Comuna 13,1428,C1428AZH
-58.4604692350338,-34.5655755003064,32089043/18,16-39-69-9c,2019-06-25,CRAMER 2001/05,CRAMER AV. 2001,Obra Mayor,4388.56,CRAMER AV.,2001,Belgrano,13,Comuna 13,1428,C1428CTE
-58.4433713871854,-34.5533442012248,8315345/18,16-25-098-012b,2019-08-13,CAZADORES 2151/57,CAZADORES 2151,Obra Media,623.63,CAZADORES,2151,Belgrano,13,Comuna 13,1428,C1428AVG
-58.4606958235074,-34.5579320692776,23412526/19,16-41-152-14,2019-08-23,CABILDO 2586/88,CABILDO AV. 2586,Obra Media,584.52,CABILDO AV.,2586,Belgrano,13,Comuna 13,1428,C1428AAU
-58.4606958235074,-34.5579320692776,23412526/19,16-41-152-14,2019-09-23,CABILDO 2586/88,CABILDO AV. 2586,Obra Media,584.52,CABILDO AV.,2586,Belgrano,13,Comuna 13,1428,C1428AAU
-58.4558700067774,-34.5636110582825,22244186/19,16-039-096-025,2019-08-06,CABILDO 1956/60,CABILDO AV. 1956,Obra Menor,286.45,CABILDO AV.,1956,Belgrano,13,Comuna 13,1428,C1428AAO
-58.4623818989962,-34.556797980936,26763120/19,16-41-154-08,2019-08-29,C.DE LA PAZ 2775/77,CIUDAD DE LA PAZ 2775,Micro Obra,,CIUDAD DE LA PAZ,2775,Belgrano,13,Comuna 13,1428,C1428CPU
-58.4470396136209,-34.5516142302327,35412308/18,16-25-94-14a,2019-08-20,ARTILLEROS 5243/53,ARTILLEROS 2437,Obra Menor,177.16,ARTILLEROS,2437,Belgrano,13,Comuna 13,1428,C1428AUM
-58.4656081711692,-34.5627818054959,20278002/19,16-39-59-1E,2019-07-16,BALBIN 2422/26,"BALBIN, RICARDO, DR. AV. 2422",Micro Obra,,"BALBIN, RICARDO, DR. AV.",2422,Belgrano,13,Comuna 13,1428,C1428CVO
-58.451297473413,-34.5565803220522,35316726/18,016-025-057-011,2019-08-27,ARRIBEÑOS 2263/65,ARRIBEÑOS 2263,Obra Media,612.9,ARRIBEÑOS,2263,,13,,,
-58.4648820469109,-34.5647418668811,24230160/19,16-39-50-6a,2019-08-23,ZAPIOLA 2254/62,ZAPIOLA 2254,Obra Menor,74.5,ZAPIOLA,2254,Belgrano,13,Comuna 13,1428,C1428CXH
-58.4648820469109,-34.5647418668811,24230160/19,16-39-50-6a,2019-09-20,ZAPIOLA 2254/62,ZAPIOLA 2254,Micro Obra,,ZAPIOLA,2254,Belgrano,13,Comuna 13,1428,C1428CXH
-58.449026330901,-34.5656073266509,31378991/18,17-23-50-12/13,2019-08-28,ARCOS 1521/39,ARCOS 1521,Obra Mayor,5310.37,ARCOS,1521,Belgrano,13,Comuna 13,1426,C1426BGI
-58.4375394955946,-34.5539147525799,23306438/19,16-25-113-6a,2019-08-06,A.J.SUCRE 744/72,"SUCRE, ANTONIO JOSE DE, MCAL. 744",Micro Obra,,"SUCRE, ANTONIO JOSE DE, MCAL.",744,Belgrano,13,Comuna 13,1428,C1428DUD
-58.4458936946453,-34.5533453001333,13763849/18,16-25-85-34b,2019-08-07,ARTILLEROS 2256,ARTILLEROS 2256,Obra Menor,181.02,ARTILLEROS,2256,Belgrano,13,Comuna 13,1428,C1428AUJ
-58.4467008506933,-34.5523749571048,11120998/19,16-25-86-2F,2019-06-05,ARTILLEROS 2360,ARTILLEROS 2360,Obra Menor,288.09,ARTILLEROS,2360,Belgrano,13,Comuna 13,1428,C1428AUL
-58.4641994454371,-34.5625131316521,35220456/18,16-39-65-4A,2019-06-11,B.ENCALADA 2950,BLANCO ENCALADA 2950,Micro Obra,7.89,BLANCO ENCALADA,2950,Belgrano,13,Comuna 13,1428,C1428DDX
-58.4665666587776,-34.5591552909903,20873322/19,16-41-99-29a,2019-07-11,CRAMER 2758,CRAMER AV. 2758,Micro Obra,,CRAMER AV.,2758,Belgrano,13,Comuna 13,1428,C1428CTT
-58.4585114770475,-34.5624238165855,32536513/18,16-39-91,2019-07-12,JURAMENTO 2527,JURAMENTO AV. 2527,Obra Mayor,561.15,JURAMENTO AV.,2527,Belgrano,13,Comuna 13,1428,C1428DNQ
-58.4631668491933,-34.5566477764488,18068088/19,16-41-144-21,2019-07-10,M.UGARTE 2525,"UGARTE, MANUEL 2525",Obra Mayor,1232.23,"UGARTE, MANUEL",2525,Belgrano,13,Comuna 13,1428,C1428BSM
-58.4693057579838,-34.566926312967,35377053/18,16-39-26-5d,2019-08-27,MELIAN 2299,MELIAN AV. 2299,Obra Menor,272.45,MELIAN AV.,2299,Belgrano,13,Comuna 13,1430,C1430EXI
-58.4440897895355,-34.5593334664026,13663119/19,17-023-129-037,2019-06-07,MIGUELETES 1762/64,MIGUELETES 1762,Micro Obra,,MIGUELETES,1762,Belgrano,13,Comuna 13,1426,C1426BVB
-58.4713026778586,-34.5688233665274,21219692/18,16-39-5-8,2019-06-25,R.NAON 2217,"NAON, ROMULO 2217",Obra Menor,61.38,"NAON, ROMULO",2217,Belgrano,13,Comuna 13,1430,C1430EPI
-58.4500698014587,-34.5607765182171,31941324/18,16-25-38-10,2019-06-12,SUCRE 1841,"SUCRE, ANTONIO JOSE DE, MCAL. 1841",Obra Media,1495.35,"SUCRE, ANTONIO JOSE DE, MCAL.",1841,Belgrano,13,Comuna 13,1428,C1428DVE
-58.4552011573037,-34.5545404447157,24716382/18,16-27-57A-20,2019-07-29,TUNEZ 2583,TUNEZ 2583,Obra Mayor,767.5,TUNEZ,2583,Belgrano,13,Comuna 13,1428,C1428ALA
-58.3637225417815,-34.637063176656,6101842/18,4-6-5-15,2019-08-27,SUAREZ 737/41,SUAREZ 737,Micro Obra,,SUAREZ,737,Boca,4,Comuna 4,1162,C1162AEO
-58.3693980421997,-34.6368267684646,32984871/18,4-10-065,2019-08-30,R.DE PATRICIO 722/30,REGIMIENTO DE PATRICIOS AV. 722,Obra Mayor,4439.79,REGIMIENTO DE PATRICIOS AV.,722,Boca,4,Comuna 4,1265,C1265AEN
-58.3615941476561,-34.6297573705955,2124237/19,04-06-059-008,2019-08-20,NECOCHEA 684/86,NECOCHEA 684,Obra Menor,217.18,NECOCHEA,684,Boca,4,Comuna 4,1158,C1158ACH
-58.3641109961878,-34.6310956363256,3991481/17,4-6-6B-2,2019-06-28,A.ESPINOSA s/n,20 DE SETIEMBRE 469,Obra Media,889.44,20 DE SETIEMBRE,469,Boca,4,Comuna 4,,
-58.3618407066855,-34.6318960424724,29413111/17,4-6-32-18,2019-07-30,ALM.BROWN 757/61,"BROWN, ALTE. AV. 757",Obra Mayor,3596.46,"BROWN, ALTE. AV.",757,Boca,4,Comuna 4,1155,C1155AEE
-58.3667276192779,-34.6438711766635,34502238/18,4-10-70-3K,2019-08-08,A.PALACIOS 1186/94,"PALACIOS, ALFREDO L. 1186",Obra Media,1500.83,"PALACIOS, ALFREDO L.",1186,Boca,4,Comuna 4,1167,C1167ABH
-58.3677744786126,-34.6333380175827,13173527/18,3-8-68-23,2019-08-20,A.ESPINOSA 1007/11,ARZOBISPO ESPINOSA 1007,Micro Obra,18,ARZOBISPO ESPINOSA,1007,Boca,4,Comuna 4,1165,C1165AAA
-58.3429631454003,-34.6239412980889,22702495/19,21-96-19-0000M,2019-09-11,ESPAÑA 3301,ESPAÑA AV. 3301,Obra Media,651.5,ESPAÑA AV.,3301,,4,,,
-58.365851265044,-34.6438861778521,21809377/18,4-10-70-1y,2019-06-07,IRALA 1631,IRALA 1631,Obra Menor,150.83,IRALA,1631,Boca,4,Comuna 4,1164,C1164ACK
-58.3636916016603,-34.631738100051,3904723/17,4-6-6f-1/2/3a,2019-06-28,M.RODRIGUEZ 361,"RODRIGUEZ, MARTIN 361",Micro Obra,,"RODRIGUEZ, MARTIN",361,Boca,4,Comuna 4,1159,C1159AFC
-58.3621530952467,-34.6333789851113,25130141/18,4-6-23-31,2019-06-04,M.RODRIGUEZ 587,"RODRIGUEZ, MARTIN 587",Obra Menor,60.52,"RODRIGUEZ, MARTIN",587,Boca,4,Comuna 4,1159,C1159ADC
-58.3671466523272,-34.6363849888189,18075818/19,4-10-78-5,2019-08-20,PINZON 1030,PINZON 1030,Obra Menor,129.6,PINZON,1030,Boca,4,Comuna 4,1161,C1161ADD
-58.4215729160779,-34.6298488565828,20556989/18,6-036-048-08,2019-06-27,TARIJA 4064/68,TARIJA 4064,Obra Media,944.57,TARIJA,4064,Boedo,5,Comuna 5,1253,C1253ACP
-58.4131501631271,-34.6379633361965,9665735/18,02-32-028-22B,2019-07-25,MAZA 2278/80,MAZA 2278,Micro Obra,,MAZA,2278,Boedo,5,Comuna 5,1240,C1240ADV
-58.4231358354417,-34.637655100534,20488720/18,01-038-135-024a,2019-08-14,MUÑIZ 1987/89,MUÑIZ 1987,Obra Menor,460.58,MUÑIZ,1987,,5,,,
-58.4271875973484,-34.6222513851991,27486685/18,6-36-009-006,2019-06-14,INDEPENDEN.4368/74,INDEPENDENCIA AV. 4368,Micro Obra,21.35,INDEPENDENCIA AV.,4368,Boedo,5,Comuna 5,1226,C1226AAV
-58.4239504802907,-34.6279959322308,21649882/19,6-36-19-1a,2019-09-20,COCHABAMBA 4202/20,COCHABAMBA 4202,Obra Menor,393.46,COCHABAMBA,4202,Boedo,5,Comuna 5,1252,C1252ABX
-58.4181966585992,-34.6293007371373,24672628/19,6-36-66-1c,2019-08-27,CASTRO BARROS 1401/07,CASTRO BARROS 1401,Micro Obra,,CASTRO BARROS,1401,Boedo,5,Comuna 5,1237,C1237ABG
-58.420155595418,-34.6233422660559,35151049/18,6-36-93-014,2019-09-30,CASTRO 924/26,CASTRO 924,Obra Media,1406.75,CASTRO,924,Boedo,5,Comuna 5,1217,C1217AAJ
-58.4164202079656,-34.636004134181,15243935/19,01-38-210-32,2019-07-10,BOEDO 1893/97,BOEDO AV. 1893,Obra Mayor,226.76,BOEDO AV.,1893,Boedo,5,Comuna 5,1239,C1239AAI
-58.415695964317,-34.6331918265278,29929280/18,2-32-37-15A,2019-06-27,BOEDO 1630/40,BOEDO AV. 1630,Obra Mayor,4875.39,BOEDO AV.,1630,Boedo,5,Comuna 5,1239,C1239AAT
-58.4150421015301,-34.6359474348923,11413294/19,2-32-31-36,2019-07-10,ALZAGA 2063/65,ALZAGA 2063,Obra Mayor,121.15,ALZAGA,2063,Boedo,5,Comuna 5,1240,C1240AAA
-58.4204185164008,-34.6380713514303,35480268/18,1-38-162-14,2019-08-12,33 ORIENTALES 2155/57,TREINTA Y TRES ORIENTALES 2155,Obra Menor,125.84,TREINTA Y TRES ORIENTALES,2155,Boedo,5,Comuna 5,1257,C1257ACW
-58.4206512288621,-34.6359862808517,14140746/19,1-38-180-19,2019-07-18,33 ORIENTALES 1910,TREINTA Y TRES ORIENTALES 1910,Obra Mayor,333.06,TREINTA Y TRES ORIENTALES,1910,Boedo,5,Comuna 5,1257,C1257ACT
-58.443835837059,-34.6154075214996,25629276/18,7-45-19-38,2019-06-06,ROJAS 482,ROJAS 482,Obra Media,1206.95,ROJAS,482,Caballito,6,Comuna 6,1405,C1405ABF
-58.4504414649502,-34.630054910422,31267180/18,5-42-38-012,2019-06-25,THORNE 478/80,THORNE 478,Obra Media,1224.73,THORNE,478,Caballito,6,Comuna 6,1406,C1406CYD
-58.4523681614066,-34.6253929955227,25893071/18,5-42-42-5,2019-07-12,RIVADAVIA 6126/28,RIVADAVIA AV. 6126,Obra Mayor,4440.97,RIVADAVIA AV.,6126,Caballito,6,Comuna 6,1406,C1406GLR
-58.4314631582326,-34.6056651859236,33936408/18,7-45-154-33a,2019-08-08,RIO DE JANEIRO 844/66,RIO DE JANEIRO 844,Obra Mayor,10515.23,RIO DE JANEIRO,844,Caballito,6,Comuna 6,1405,C1405CCN
-58.4310545835164,-34.6066957263843,18804725/18,7-45-153-34a,2019-08-20,RIO DE JANEIRO 746/60,RIO DE JANEIRO 746,Obra Mayor,5089.12,RIO DE JANEIRO,746,Caballito,6,Comuna 6,1405,C1405CCL
-58.4360073618202,-34.6248269282226,30416615/18,06-040-070-016,2019-08-06,RIGLOS 516/22,RIGLOS 516,Obra Media,2163.05,RIGLOS,516,Caballito,6,Comuna 6,1424,C1424AFL
-58.450742238255,-34.6124460921974,34248056/18,5-57-108-022,2019-08-21,PLANES 1183/85,PLANES 1183,Obra Menor,181.76,PLANES,1183,Caballito,6,Comuna 6,1405,C1405DBK
-58.4459024697731,-34.6269955896773,3126536/17,5-42-74-23,2019-07-11,P.GOYENA 1311/15,"GOYENA, PEDRO AV. 1311",Obra Mayor,192.63,"GOYENA, PEDRO AV.",1311,Caballito,6,Comuna 6,1406,C1406GWC
-58.4555108317825,-34.6204297008279,4606419/19,5-57-42-26a,2019-08-08,MORELOS 444/46,MORELOS 444,Micro Obra,,MORELOS,444,Caballito,6,Comuna 6,1406,C1406BQF
-58.450377728121,-34.6166463466548,24422170/18,5-57-085-005,2019-07-15,M.DE ANDES 1128/32,MENDEZ DE ANDES 1128,Obra Mayor,1036.64,MENDEZ DE ANDES,1128,Caballito,6,Comuna 6,1405,C1405CVP
-58.4378911179262,-34.6081410122676,31370337/18,07-45-99-33a,2019-06-13,L.MARECHAL 862/86,"MARECHAL, LEOPOLDO 862",Obra Mayor,8296,"MARECHAL, LEOPOLDO",862,Caballito,6,Comuna 6,1405,C1405BMB
-58.4347156067702,-34.6247497188994,4878441/16,6-40-70-55,2019-09-27,J.M.MORENO 513/15,"MORENO, JOSE MARIA AV. 513",Obra Menor,295.54,"MORENO, JOSE MARIA AV.",513,Caballito,6,Comuna 6,1424,C1424AAF
-58.4395420429112,-34.6226080946351,8055319/18,6-40-38-35b,2019-08-27,J.B.ALBERDI 833/35,"ALBERDI, JUAN BAUTISTA AV. 833",Micro Obra,,"ALBERDI, JUAN BAUTISTA AV.",833,Caballito,6,Comuna 6,1424,C1424BYI
-58.4397923451892,-34.6150039077786,32777687/18,7-45-52-21,2019-09-27,HIDALGO 378/80,HIDALGO 378,Obra Media,2399.78,HIDALGO,378,Caballito,6,Comuna 6,1405,C1405BCD
-58.447597816928,-34.6099294330476,28124468/19,5-57-123-30,2019-09-26,FRANKLIN 957/59,FRANKLIN 957,Obra Menor,417.47,FRANKLIN,957,Caballito,6,Comuna 6,1405,C1405DEK
-58.4450322298352,-34.6131946091623,19996599/19,7-45-23-2a,2019-08-23,F.VALLESE820/24,"VALLESE, FELIPE 820",Obra Media,1409.87,"VALLESE, FELIPE",820,Caballito,6,Comuna 6,1405,C1405CWL
-58.4382633473299,-34.6286690432789,28301879/18,6-40-31-16,2019-08-27,DIRECTORIO 777/81,DIRECTORIO AV. 777,Obra Media,2207.11,DIRECTORIO AV.,777,Caballito,6,Comuna 6,1424,C1424CIH
-58.4499681128401,-34.6300739183422,15469399/19,05-42-38-17,2019-08-13,DIRECTORIO 1621/23,DIRECTORIO AV. 1621,Micro Obra,,DIRECTORIO AV.,1621,Caballito,6,Comuna 6,1406,C1406GZF
-58.4418997810365,-34.6289753798836,25757975/19,6-40-13-8,2019-09-20,DIRECTORIO 1005/09,DIRECTORIO AV. 1005,Micro Obra,,DIRECTORIO AV.,1005,Caballito,6,Comuna 6,1424,C1424CIK
-58.4363467012498,-34.6090206082509,33960391/18,7-45-107-2,2019-08-28,DIAZ VELEZ 4916/20,DIAZ VELEZ AV. 4916,Obra Media,1103.76,DIAZ VELEZ AV.,4916,Caballito,6,Comuna 6,1405,C1405DCR
-58.4367971647465,-34.6138618095471,27662558/18,7-45-95-07,2019-07-15,AVELLANEDA 438/40,AVELLANEDA 438,Obra Mayor,1251.52,AVELLANEDA,438,Caballito,6,Comuna 6,1405,C1405CNR
-58.4417721319407,-34.6064567419253,18568841/19,15-93-40-16,2019-09-20,A.GALLARDO 806,"GALLARDO, ANGEL AV. 806",Obra Menor,276.11,"GALLARDO, ANGEL AV.",806,Caballito,6,Comuna 6,1405,C1405DJV
-58.4479461564207,-34.616593887918,12109034/19,5-57-103-21,2019-06-05,ARANGUREN 1061/65,"ARANGUREN, JUAN F., DR. 1061",Micro Obra,,"ARANGUREN, JUAN F., DR.",1061,Caballito,6,Comuna 6,1405,C1405CRU
-58.4483108416888,-34.6170915131209,16152564/19,5-57-102-15B,2019-07-01,ARANGUREN 1096,"ARANGUREN, JUAN F., DR. 1096",Obra Mayor,96.45,"ARANGUREN, JUAN F., DR.",1096,Caballito,6,Comuna 6,1405,C1405CRV
-58.4420963365955,-34.6179344511907,33358940/18,07-45-30-22,2019-07-31,BACACAY 877,BACACAY 877,Obra Mayor,1372.55,BACACAY,877,Caballito,6,Comuna 6,,
-58.4384198064943,-34.6257928917288,23335955/19,6-40-25B-28,2019-08-29,BERTRES 589,BERTRES 589,Micro Obra,,BERTRES,589,Caballito,6,Comuna 6,1424,C1424AKG
-58.4528439925806,-34.6274996214565,20079140/19,05-42-41-22,2019-07-29,CURAPALIGUE 186,CURAPALIGUE 186,Obra Mayor,221.93,CURAPALIGUE,186,Caballito,6,Comuna 6,1406,C1406DAO
-58.4528439925806,-34.6274996214565,20079140/19,05-42-41-22,2019-09-17,CURAPALIGUE 186,CURAPALIGUE 186,Obra Menor,221.93,CURAPALIGUE,186,Caballito,6,Comuna 6,1406,C1406DAO
-58.457666811213,-34.6172505733709,18757233/19,5-57-45-23B,2019-08-30,D.ALVAREZ 715,"ALVAREZ, DONATO, TTE. GRAL. 715",Micro Obra,,"ALVAREZ, DONATO, TTE. GRAL.",715,Caballito,6,Comuna 6,1406,C1406BOF
-58.457666811213,-34.6172505733709,18757233/19,5-57-45-23B,2019-09-20,D.ALVAREZ 715,"ALVAREZ, DONATO, TTE. GRAL. 715",Micro Obra,,"ALVAREZ, DONATO, TTE. GRAL.",715,Caballito,6,Comuna 6,1406,C1406BOF
-58.4434935950608,-34.6253841280755,27164341/18,5-42-87A-1,2019-06-25,E.MITRE 301,"MITRE, EMILIO 301",Micro Obra,,"MITRE, EMILIO",301,Caballito,6,Comuna 6,1424,C1424AYG
-58.4444131445315,-34.6109522550272,15242365/17,07-45-48B-12,2019-09-27,F.MACIEL 843,"MACIEL, FRANCISCO A. 843",Obra Menor,256.08,"MACIEL, FRANCISCO A.",843,Caballito,6,Comuna 6,1405,C1405AUA
-58.4540499120922,-34.6161293796308,30100346/18,5-57-71-19,2019-06-28,F.VALLESE 1375,"VALLESE, FELIPE 1375",Obra Menor,276.12,"VALLESE, FELIPE",1375,Caballito,6,Comuna 6,1405,C1405CWU
-58.4453499964392,-34.6128320726284,15363898/18,7-45-24-31,2019-06-07,F.VALLESE 829,"VALLESE, FELIPE 829",Obra Media,858.65,"VALLESE, FELIPE",829,Caballito,6,Comuna 6,1405,C1405CWK
-58.429171572932,-34.6209269698972,34982933/18,6-40-143-42,2019-06-07,FORMOSA 86,FORMOSA 86,Obra Menor,96.71,FORMOSA,86,Caballito,6,Comuna 6,1424,C1424BZB
-58.4357346860274,-34.6151822126958,26068819/18,7-45-94-28a,2019-07-11,G.A.ALFARO 329,"ARAOZ ALFARO, GREGORIO, DR 329",Obra Mayor,1778.27,"ARAOZ ALFARO, GREGORIO, DR",329,Caballito,6,Comuna 6,1405,C1405CIC
-58.4557280519957,-34.6121192873893,13477503/18,15-59-125-22a,2019-06-06,GAONA 1973/89,GAONA AV. 1973,Micro Obra,,GAONA AV.,1973,Caballito,6,Comuna 6,1416,C1416DRH
-58.4474115541365,-34.6289657205439,14046980/17,5-42-63-43,2019-08-28,J.BONIFACIO 1460,"BONIFACIO, JOSE 1460",Obra Media,1522.93,"BONIFACIO, JOSE",1460,Caballito,6,Comuna 6,1406,C1406GXH
-58.4480637189324,-34.6290066582528,10872986/17,5-42-58-1C/1F,2019-07-10,J.BONIFACIO 1502,"BONIFACIO, JOSE 1502",Obra Mayor,1292.57,"BONIFACIO, JOSE",1502,Caballito,6,Comuna 6,1406,C1406GXJ
-58.4513413600418,-34.6295914417569,28640509/17,5-42-31-3,2019-08-29,J.BONIFACIO 1664,"BONIFACIO, JOSE 1664",Micro Obra,,"BONIFACIO, JOSE",1664,Caballito,6,Comuna 6,1406,C1406GXL
-58.4398850137549,-34.6277793197016,13835498/18,6-40-30-11,2019-07-24,J.BONIFACIO 880,"BONIFACIO, JOSE 880",Obra Mayor,1140.17,"BONIFACIO, JOSE",880,Caballito,6,Comuna 6,1424,C1424CHR
-58.4511656779184,-34.6279462950324,9430251/18,5-42-40-23a,2019-06-06,P.GOYENA 1631/37,"GOYENA, PEDRO AV. 1631",Obra Mayor,6727.78,"GOYENA, PEDRO AV.",1631,Caballito,6,Comuna 6,1406,C1406GWF
-58.4506340269371,-34.6155756861668,34359473/18,5-57-95-13a,2019-06-10,PAYSANDU 651,PAYSANDU 651,Micro Obra,17.93,PAYSANDU,651,Caballito,6,Comuna 6,1405,C1405ANE
-58.4315691255025,-34.6071288528716,13655889/19,07-45-153-21,2019-07-10,R.MEJIA 729,RAMOS MEJIA 729,Micro Obra,,RAMOS MEJIA,729,Caballito,6,Comuna 6,1405,C1405CAC
-58.4310821065265,-34.6076324713874,24900499/19,7-45-152-011,2019-09-16,RAMOS MEJIA 627,RAMOS MEJIA 627,Micro Obra,,RAMOS MEJIA,627,Caballito,6,Comuna 6,1405,C1405CAA
-58.4360235026134,-34.623823895642,8943078/17,6-40-71-14,2019-08-28,RIGLOS 434,RIGLOS 434,Micro Obra,,RIGLOS,434,Caballito,6,Comuna 6,1424,C1424AFJ
-58.4449143904183,-34.6248988328191,8719404/19,05-42-89-24A,2019-06-27,V.MARTINEZ 263,"MARTINEZ, VICTOR 263",Obra Mayor,3271.37,"MARTINEZ, VICTOR",263,Caballito,6,Comuna 6,1406,C1406CDE
-58.4534046008802,-34.5824871009659,33561105/18,17-37-5-2,2019-09-24,T.GARCIA  3724/26,"GARCIA, TEODORO 3724",Obra Media,992.56,"GARCIA, TEODORO",3724,Chacarita,15,Comuna 15,1427,C1427ECF
-58.4494415871172,-34.585686352015,29199341/17,17-33-38-17,2019-09-30,J.NEWBERY 3764/70,"NEWBERY, JORGE AV. 3764",Obra Media,986.26,"NEWBERY, JORGE AV.",3764,Chacarita,15,Comuna 15,1427,C1427EGQ
-58.4485863190328,-34.5818517029328,30958421/18,17-33-76-11/12/21,2019-07-18,J.NEWBERY 3431/61,"NEWBERY, JORGE AV. 3431",Obra Mayor,7659.94,"NEWBERY, JORGE AV.",3431,Chacarita,15,Comuna 15,1427,C1427EGA
-58.4559329104727,-34.5962699309474,15827975/17,15-47-58-8,2019-07-19,CONS.ARENAL 4778/80,"ARENAL, CONCEPCION 4778",Obra Mayor,308.83,"ARENAL, CONCEPCION",4778,Chacarita,15,Comuna 15,1427,C1427ELB
-58.4476688514605,-34.5842674836079,27574680/19,17-33-61-22,2019-09-25,CHARLONE 169/75,CHARLONE 169,Obra Menor,243.32,CHARLONE,169,Chacarita,15,Comuna 15,1427,C1427BXC
-58.4436920935327,-34.5863131960754,21754760/19,17-33-58-22/23,2019-07-25,CASTILLO 1659/67,CASTILLO 1659,Obra Mayor,840.64,CASTILLO,1659,Chacarita,15,Comuna 15,1414,C1414AXI
-58.4464078315869,-34.5845132135335,15598448/19,17-33-60-20,2019-07-11,C.ARENAL 3560,"ARENAL, CONCEPCION 3560",Obra Mayor,400.7,"ARENAL, CONCEPCION",3560,Chacarita,15,Comuna 15,1427,C1427EKD
-58.4454147989759,-34.5856301298095,33361366/18,17-33-48-2,2019-06-06,CHARLONE 8/10,CHARLONE 8,Obra Menor,170.85,CHARLONE,8,Chacarita,15,Comuna 15,1427,C1427BXB
-58.4590031421424,-34.5841351026901,8485678/18,15-49-158c-1,2019-08-07,GUEVARA 1080,GUEVARA 1080,Micro Obra,,GUEVARA,1080,Chacarita,15,Comuna 15,1427,C1427BSB
-58.4595264704725,-34.5838251813492,35485308/18,15-49-159-018,2019-07-24,GUEVARA 1119,GUEVARA 1119,Obra Mayor,396.65,GUEVARA,1119,Chacarita,15,Comuna 15,1427,C1427BSC
-58.4604004744666,-34.5840510950485,5123815/18,15-49-158E-1,2019-08-22,GUEVARA 1190,GUEVARA 1190,Micro Obra,,GUEVARA,1190,Chacarita,15,Comuna 15,1427,C1427BSD
-58.4690049022788,-34.5616963737782,20796586/19,16-41-59-36,2019-07-23,R.FREIRE 2660/76,"FREIRE, RAMON, CAP. GRAL. 2660",Obra Mayor,19.58,"FREIRE, RAMON, CAP. GRAL.",2660,Coghlan,12,Comuna 12,1428,C1428CZN
-58.4707109021095,-34.5580133364575,10993564/17,16-41-77-19,2019-07-29,QUESADA 3153/55,QUESADA 3153,Obra Mayor,747.86,QUESADA,3153,Coghlan,12,Comuna 12,1429,C1429COY
-58.4762082891305,-34.5553189335019,17278875/17,16-41-56-2a,2019-09-23,NUÑEZ 3422/40,NUÑEZ 3422,Obra Mayor,2784.04,NUÑEZ,3422,,12,,,
-58.4715186033232,-34.560717956884,35316430/19,16-41-49-29c,2019-09-11,CONDE 2850/76,CONDE 2850,Micro Obra,,CONDE,2850,Coghlan,12,Comuna 12,1428,C1428DBN
-58.476620512426,-34.5554536223635,23719993/17,16-41-56-6,2019-06-05,NUÑEZ 3462/64,NUÑEZ 3462,Micro Obra,,NUÑEZ,3462,,12,,,
-58.4775113525126,-34.5619115419668,27700586/18,16-53-139-1c,2019-06-07,QUESADA 3810/50,QUESADA 3810,Obra Mayor,29326.25,QUESADA,3810,Coghlan,12,Comuna 12,1430,C1430AXL
-58.4787887093812,-34.5623504104384,26482816/17,76-53-130A-9,2019-06-10,QUESADA 3921/25,QUESADA 3921,Obra Media,751.91,QUESADA,3921,Coghlan,12,Comuna 12,1430,C1430AXM
-58.4513474352839,-34.5787583298186,32784327/18,17-37-34-32,2019-07-11,T.GARCIA 3333/35,"GARCIA, TEODORO 3333",Obra Mayor,897.49,"GARCIA, TEODORO",3333,Colegiales,13,Comuna 13,1426,C1426DNK
-58.4534918255175,-34.5752438526317,17941843/18,17-37-73-6,2019-09-30,R.FREIRE 1042/46,"FREIRE, RAMON, CAP. GRAL. 1042",Obra Media,1192.66,"FREIRE, RAMON, CAP. GRAL.",1042,Colegiales,13,Comuna 13,1426,C1426AVV
-58.4519917093972,-34.5785491675342,32884643/18,5-37-34-13,2019-06-28,PALPA 3338/40,PALPA 3338,Obra Media,897.25,PALPA,3338,Colegiales,13,Comuna 13,1426,C1426DPL
-58.447342815031,-34.5723712601761,10552104/19,17-37-127-07,2019-08-08,MOLDES 691/93,MOLDES 691,Obra Media,1406.5,MOLDES,691,Colegiales,13,Comuna 13,1426,C1426ALA
-58.4553705218905,-34.5708047410258,9039802/19,17-37-114-13,2019-08-26,V.O.Y FELIU 2855/59,"OLAGUER Y FELIU, VIRREY 2855",Obra Menor,129.32,"OLAGUER Y FELIU, VIRREY",2855,Colegiales,13,Comuna 13,1426,C1426ECA
-58.4524089717194,-34.5693816646171,32241828/18,017-037-133-04B-5A,2019-07-23,V.ARREDONDO 2652/62,"ARREDONDO, VIRREY 2652",Obra Mayor,3325.78,"ARREDONDO, VIRREY",2652,Colegiales,13,Comuna 13,1426,C1426DZJ
-58.4492549434086,-34.5790252344148,11255081/19,17-33-100-020,2019-09-11,E.MARTINEZ 525/35,"MARTINEZ, ENRIQUE, GRAL. 525",Obra Menor,111.23,"MARTINEZ, ENRIQUE, GRAL.",525,Colegiales,13,Comuna 13,1426,C1426BBG
-58.4535501518047,-34.5787737904647,23798218/19,17-37-24-9,2019-09-16,DELGADO 842/52,DELGADO 842,Obra Menor,363,DELGADO,842,Colegiales,13,Comuna 13,1426,C1426BDL
-58.4418769652188,-34.572587234641,20867697/19,17-35-109-21,2019-08-27,ZAPATA 431/35,ZAPATA 431,Micro Obra,14.23,ZAPATA,431,Colegiales,13,Comuna 13,1426,C1426AEG
-58.4522291210462,-34.5692293587732,32665832/18,17-37-133-024,2019-07-29,AMENABAR 1376/80,AMENABAR 1376,Obra Mayor,1101.48,AMENABAR,1376,Colegiales,13,Comuna 13,1426,C1426AJX
-58.4456610789888,-34.5790603025992,32930718/18,17-35-9A-2,2019-07-18,B.MATIENZO 3132,"MATIENZO, BENJAMIN, TENIENTE 3132",Obra Mayor,88.36,"MATIENZO, BENJAMIN, TENIENTE",3132,Colegiales,13,Comuna 13,1426,C1426DBH
-58.4559557008415,-34.5704700312978,32763060/18,17-037-114-021,2019-07-19,CRAMER 1582,CRAMER 1582,Obra Mayor,191.73,CRAMER,1582,Colegiales,13,Comuna 13,1426,C1426AOH
-58.4470240338054,-34.5738857726535,35315717/18,17-35-56-9,2019-06-27,F.LACROZE 2814,"LACROZE, FEDERICO AV. 2814",Obra Media,1554.2,"LACROZE, FEDERICO AV.",2814,Colegiales,13,Comuna 13,1426,C1426CQO
-58.4469237156781,-34.5760843427913,5612645/19,17-35-41-14,2019-06-18,OLLEROS 2964,OLLEROS 2964,Obra Menor,90.26,OLLEROS,2964,Colegiales,13,Comuna 13,1426,C1426CSF
-58.3860853517263,-34.62028914909,31413735/18,12-14-032-034,2019-08-13,SAN JOSE 1035,SAN JOSE 1035,Obra Menor,181.29,SAN JOSE,1035,Constitucion,1,Comuna 1,1076,C1076AAU
-58.3788413493592,-34.6202748066659,33407269/18,12-14-72-32,2019-08-27,TACUARI 1051/53,TACUARI 1051,Obra Menor,95.46,TACUARI,1051,Constitucion,1,Comuna 1,1071,C1071AAU
-58.3876850892647,-34.6207342465915,19959048/19,12-14-23-40,2019-07-29,S.PEÑA 1055/69,"SAENZ PEÑA, LUIS, PRES. 1055",Obra Mayor,823.04,"SAENZ PEÑA, LUIS, PRES.",1055,,1,,,
-58.382710378809,-34.6187055914053,19196816/19,12-14-57-12,2019-07-31,EST.UNIDOS 1184,ESTADOS UNIDOS 1184,Micro Obra,,ESTADOS UNIDOS,1184,Constitucion,1,Comuna 1,1101,C1101AAX
-58.376993837276,-34.6248981452287,11550052/19,12-4-1-7f,2019-06-13,PIEDRAS 1391,PIEDRAS 1391,Obra Media,1758.05,PIEDRAS,1391,Constitucion,1,Comuna 1,1140,C1140ABC
-58.468079188755,-34.6351620957394,31384713/18,5-48-34-37,2019-09-24,SAN PEDRITO 363/67,SAN PEDRITO AV. 363,Obra Mayor,3362.27,SAN PEDRITO AV.,363,Flores,7,Comuna 7,1406,C1406EXD
-58.4619749698762,-34.6310320255513,24946683/19,05-48-108-03,2019-08-28,R.INDARTE 181/83,RIVERA INDARTE AV. 181,Micro Obra,,RIVERA INDARTE AV.,181,Flores,7,Comuna 7,1406,C1406DXC
-58.4537028743252,-34.6294511315659,20399430/18,05-42-18-9H,2019-06-13,PUMACAHUA 270/72,PUMACAHUA 270,Obra Media,1722.52,PUMACAHUA,270,Flores,7,Comuna 7,1406,C1406DCF
-58.4628884333776,-34.6327067557002,17569840/19,05-48-97-025A,2019-06-28,PEDERNERA 289/95,PEDERNERA 289,Obra Menor,39.33,PEDERNERA,289,Flores,7,Comuna 7,1406,C1406EEE
-58.4638937817627,-34.6174292106551,35455598/18,5-65-118-26,2019-08-15,NEUQUEN 2181/83,NEUQUEN 2181,Obra Media,906.46,NEUQUEN,2181,Flores,7,Comuna 7,1406,C1406FOM
-58.4727156378594,-34.6249113738675,31575756/18,5-65-26-37,2019-08-15,NAZCA 640/42,NAZCA AV. 640,Obra Media,1315.01,NAZCA AV.,640,Flores,7,Comuna 7,1406,C1406AJS
-58.4652915745757,-34.6187393558858,31810262/18,5-65-107-25,2019-07-11,CARACAS 953/59,CARACAS 953,Obra Mayor,561.4,CARACAS,953,Flores,7,Comuna 7,1406,C1406AZQ
-58.4555845732353,-34.6283612766896,21488281/18,5-42-009-014,2019-07-25,CARABOBO 130/34,CARABOBO AV. 130,Obra Mayor,2457.43,CARABOBO AV.,130,Flores,7,Comuna 7,1406,C1406DGO
-58.4612641482409,-34.6204216515335,26868655/18,5-65-125-024/025,2019-07-15,BOYACA 602/14,BOYACA 602,Obra Mayor,4468.82,BOYACA,602,Flores,7,Comuna 7,1406,C1406BHL
-58.4610756299556,-34.621049137012,13151328/17,05-65-124-29,2019-07-15,BOYACA 542/44,BOYACA AV. 542,Obra Mayor,219.86,BOYACA AV.,542,Flores,7,Comuna 7,1406,C1406BHJ
-58.4589860099298,-34.6238375958377,23548372/19,5-65-129-12,2019-08-08,BOYACA 286/88,BOYACA AV. 286,Obra Menor,39.13,BOYACA AV.,286,Flores,7,Comuna 7,1406,C1406BHD
-58.4688556692831,-34.6217438448901,19965439/19,5-65-68-18,2019-08-14,BOLIVIA 805/07,ESTADO PLURINACIONAL DE BOLIVIA 805,Obra Menor,487.28,ESTADO PLURINACIONAL DE BOLIVIA,805,Flores,7,Comuna 7,1406,C1406ADO
-58.4740813574311,-34.6241258660074,24533360/18,5-65-27-15,2019-07-29,ARGERICH 731/35,ARGERICH 731,Obra Mayor,2117.14,ARGERICH,731,Flores,7,Comuna 7,1406,C1406AMK
-58.4597029427961,-34.6263562955734,34792999/18,5-65-110B-9C,2019-08-28,YERBAL 2109/31,YERBAL 2109,Obra Mayor,3222.41,YERBAL,2109,Flores,7,Comuna 7,1406,C1406GJW
-58.4718682606651,-34.6291653447335,11965102/19,05-65-22-10d,2019-08-26,ARGERICH 235,ARGERICH 235,Obra Menor,271.87,ARGERICH,235,Flores,7,Comuna 7,1406,C1406AMA
-58.4704017237995,-34.6282394116223,17712821/19,05-065-33-014b,2019-07-31,BACACAY 2885,BACACAY 2885,Obra Mayor,238.73,BACACAY,2885,Flores,7,Comuna 7,1406,C1406GDY
-58.4613747586903,-34.6194625791457,2869892/18,5-57-07-13b,2019-07-12,BOYACA 693,BOYACA 693,Obra Mayor,2131.39,BOYACA,693,Flores,7,Comuna 7,1406,C1406BHK
-58.4569410164763,-34.6231666966772,32669307/18,5-57-19-1e,2019-08-02,CALCENA 278,CALCENA 278,Obra Media,570.07,CALCENA,278,Flores,7,Comuna 7,1406,C1406BLD
-58.4627324959009,-34.6217642239998,22184176/18,5-065-114-011,2019-07-29,GAVILAN 651,GAVILAN 651,Obra Mayor,1288.78,GAVILAN,651,Flores,7,Comuna 7,1406,C1406BBI
-58.4627257385348,-34.6206558450737,22447894/18,5-65-115-28,2019-06-05,GRANADEROS 634,GRANADEROS 634,Obra Media,1750.64,GRANADEROS,634,Flores,7,Comuna 7,1406,C1406BDL
-58.4731364091274,-34.6293286781622,33442784/18,05-65-012-012,2019-06-27,HELGUERA 185,HELGUERA 185,Obra Media,799.1,HELGUERA,185,Flores,7,Comuna 7,1406,C1406APA
-58.4619828143521,-34.6329012254999,18903619/19,05-48-106-07,2019-07-10,J.BONIFACIO 2456,"BONIFACIO, JOSE 2456",Obra Mayor,30.03,"BONIFACIO, JOSE",2456,Flores,7,Comuna 7,1406,C1406GYB
-58.4589827687335,-34.6162862053928,22058588/18,5-57-32-4A,2019-06-07,NEUQUEN 1840/46,NEUQUEN 1840,Micro Obra,18.89,NEUQUEN,1840,Flores,7,Comuna 7,1406,C1406FOH
-58.4768574954214,-34.6227995623433,31566307/18,5-65-9-20,2019-06-07,PAEZ 3137/39,PAEZ 3137,Obra Media,1372.53,PAEZ,3137,Flores,7,Comuna 7,1406,C1406FRC
-58.4591360291384,-34.6418454636682,25406444/19,05-48-54-1e,2019-09-24,PILLADO 1115,PILLADO 1115,Obra Menor,233.46,PILLADO,1115,Flores,7,Comuna 7,1406,C1406EVI
-58.4537886619579,-34.629228414903,25735137/19,5-42-18-9e,2019-09-20,PUMACAHUA 220,PUMACAHUA 220,Obra Media,1217.65,PUMACAHUA,220,Flores,7,Comuna 7,1406,C1406DCF
-58.4698788405761,-34.6346609613963,23555492/18,5-48-22-34,2019-07-18,QUIRNO 275,QUIRNO 275,Obra Mayor,1045.8,QUIRNO,275,Flores,7,Comuna 7,1406,C1406EZE
-58.4701001011925,-34.6379030272701,20374539/18,05-48-007-10,2019-07-05,TANDIL 3138,TANDIL 3138,Obra Mayor,1135.9,TANDIL,3138,Flores,7,Comuna 7,1406,C1406HBN
-58.4568880071019,-34.62557926604,15347842/17,5-57-1-5,2019-07-12,YERBAL 1870,YERBAL 1870,Micro Obra,,YERBAL,1870,Flores,7,Comuna 7,1406,C1406GJR
-58.4791637145866,-34.6335881120314,18746477/19,01-54-158-04,2019-07-18,RIVADAVIA 8224/28,RIVADAVIA AV. 8224,Obra Mayor,101.07,RIVADAVIA AV.,8224,Floresta,10,Comuna 10,1407,C1407DYR
-58.4724087771448,-34.6363172818048,13671225/19,1-54-203-11,2019-08-07,PERGAMINO 336/38,PERGAMINO 336,Obra Menor,128.1,PERGAMINO,336,Floresta,10,Comuna 10,1406,C1406FHH
-58.4889426364191,-34.6235627525925,33673752/18,15-079-040A,2019-06-11,HAITI 3962/66,HAITI 3962,Obra Menor,159,HAITI,3962,Floresta,10,Comuna 10,1407,C1407FKB
-58.4799936368911,-34.6259476379768,27336480/19,1-77-128-19C,2019-09-24,E.LAMARCA 612/14,"LAMARCA, EMILIO 612",Obra Menor,365.41,"LAMARCA, EMILIO",612,Floresta,10,Comuna 10,1407,C1407DFN
-58.4915855994578,-34.6207196438858,24907358/19,15-83-070-10g,2019-08-26,CHIVILCOY 1420/22,CHIVILCOY 1420,Micro Obra,25.86,CHIVILCOY,1420,Floresta,10,Comuna 10,1407,C1407AFB
-58.4760774073065,-34.6296871230854,33956746/18,1-77-140-24,2019-09-25,BACACAY 3321/23,BACACAY 3321,Obra Menor,52.95,BACACAY,3321,Floresta,10,Comuna 10,1407,C1407EDA
-58.4775461893319,-34.6300088298336,34738223/18,1-77-132-19,2019-07-12,BACACAY 3475,BACACAY 3475,Obra Mayor,279.8,BACACAY,3475,Floresta,10,Comuna 10,1407,C1407EDC
-58.4781572215446,-34.6342657960809,22989191/18,1-54-164-16,2019-06-27,ENSENADA 96,ENSENADA 96,Obra Media,936.07,ENSENADA,96,Floresta,10,Comuna 10,1407,C1407KEB
-58.4938691289536,-34.6244409519312,5010068/19,15-79-5D-19C,2019-06-06,Pje.URUNDAY 1312,URUNDAY 1312,Micro Obra,18.36,URUNDAY,1312,Floresta,10,Comuna 10,1407,C1407DKD
-58.507181449001,-34.6466272382576,13698941/19,1-60-006A-6,2019-08-07,U.SCHMIDL 5956/58,"SCHMIDL, ULRICO 5956",Obra Menor,426.51,"SCHMIDL, ULRICO",5956,Liniers,9,Comuna 9,1440,C1440CFR
-58.5286518303127,-34.6396054022264,33873635/18,01-72-16-9,2019-09-27,RIVADAVIA 11674/78,RIVADAVIA AV. 11674,Obra Menor,449.75,RIVADAVIA AV.,11674,Liniers,9,Comuna 9,1408,C1408ABQ
-58.5128387270432,-34.6390602031928,17846770/19,1-95-33-18a,2019-07-31,RIVADAVIA 10581/99,RIVADAVIA AV. 10581,Micro Obra,,RIVADAVIA AV.,10581,Liniers,9,Comuna 9,1408,C1408AAF
-58.5123330398802,-34.647807201376,23037762/19,01-74-126-18,2019-09-17,MURGUIONDO 930/32,MURGUIONDO 930,Micro Obra,,MURGUIONDO,930,Liniers,9,Comuna 9,1408,C1408GYT
-58.5198694197424,-34.6392309027159,24466841/19,1-72-115.001,2019-08-29,M.LEGUIZAMON 7/13,"LEGUIZAMON, MARTINIANO 7",Micro Obra,,"LEGUIZAMON, MARTINIANO",7,Liniers,9,Comuna 9,1408,C1408GVA
-58.5186258641418,-34.6409431410096,17423426/16,1-72-123-26,2019-07-11,MURGUIONDO 151/55,MURGUIONDO 151,Obra Mayor,1460.56,MURGUIONDO,151,Liniers,9,Comuna 9,1408,C1408GYC
-58.5159727696995,-34.6453564099852,35443494/18,1-72-126-24,2019-08-29,MURGUIONDO 646/48,MURGUIONDO 646,Obra Menor,95.61,MURGUIONDO,646,Liniers,9,Comuna 9,1408,C1408GYN
-58.5123330398802,-34.647807201376,23037762/19,01-74-126-18,2019-08-16,MURGUIONDO 930/32,MURGUIONDO 930,Obra Mayor,3504..58,MURGUIONDO,930,Liniers,9,Comuna 9,1408,C1408GYT
-58.5269174158537,-34.6397827209978,18964098/19,1-72-40B-4f,2019-09-20,J.L.SUAREZ 52/64,"SUAREZ, JOSE LEON 52",Obra Mayor,4915.82,"SUAREZ, JOSE LEON",52,Liniers,9,Comuna 9,1408,C1408FNB
-58.5164809606187,-34.6509005988736,19681590/19,01-74-082-32,2019-09-10,ACASSUSO 6795,ACASSUSO 6795,Obra Menor,488.59,ACASSUSO,6795,Liniers,9,Comuna 9,1408,C1408FEI
-58.5277051168771,-34.6474123450105,20436617/19,1-72-9A-12,2019-08-06,GRANADA 780,"GRANADA, NICOLAS, CORONEL 780",Obra Menor,210.08,"GRANADA, NICOLAS, CORONEL",780,Liniers,9,Comuna 9,1408,C1408FLB
-58.5210751000331,-34.6404356525592,15480721/19,01-72-114-11B,2019-06-18,L.DE LA TORRE 104,"DE LA TORRE, LISANDRO 104",Micro Obra,,"DE LA TORRE, LISANDRO",104,Liniers,9,Comuna 9,1408,C1408GTD
-58.5210056083419,-34.6428447792658,30299749/17,01-72-96A-20,2019-07-18,L.DE LA TORRE 309,"DE LA TORRE, LISANDRO 309",Obra Mayor,1133.74,"DE LA TORRE, LISANDRO",309,Liniers,9,Comuna 9,1408,C1408GTG
-58.5180359921128,-34.6451030845907,35485389/18,1-072-118-025,2019-09-26,M.LEGUIZAMON 632,"LEGUIZAMON, MARTINIANO 632",Obra Menor,71.02,"LEGUIZAMON, MARTINIANO",632,Liniers,9,Comuna 9,1408,C1408GWN
-58.517900910066,-34.6435454007625,19160542/18,1-72-130-7,2019-06-26,PALMAR 6482,PALMAR 6482,Obra Menor,51.49,PALMAR,6482,Liniers,9,Comuna 9,1408,C1408EEB
-58.5254419859537,-34.6425377117262,33870891/18,1-72-055B-24,2019-06-27,V.BOSCH 7053,"BOSCH, VENTURA 7053",Obra Menor,130.91,"BOSCH, VENTURA",7053,Liniers,9,Comuna 9,1408,C1408ECO
-58.5054834061118,-34.6573976954676,14552612/19,1-76-140-13,2019-08-23,TAPALQUE 6423/25,TAPALQUE 6423,Obra Menor,93.2,TAPALQUE,6423,Mataderos,9,Comuna 9,1440,C1440AFE
-58.5036106304344,-34.6520948455045,12569433/18,1-74-128-25b,2019-09-24,PIRES 1285/89,PIERES 1285,Obra Media,1812.4,PIERES,1285,Mataderos,9,Comuna 9,1440,C1440CSI
-58.4816129442006,-34.6568019408699,6626627/19,1-62-126-19,2019-08-20,G.NACIONAL 2154/56,GUARDIA NACIONAL 2154,Obra Menor,254.07,GUARDIA NACIONAL,2154,Mataderos,9,Comuna 9,1440,C1440DUJ
-58.4903928206265,-34.6587156539166,30379188/18,1-62-30-19a,2019-07-29,FONROUGE 2274/76,FONROUGE 2274,Obra Mayor,859.99,FONROUGE,2274,Mataderos,9,Comuna 9,1440,C1440CZD
-58.4875618281054,-34.6626745464052,29612814/17,1-62-01-35a,2019-07-24,EVA OERON 5801/05,"PERON, EVA AV. 5801",Obra Mayor,628.44,"PERON, EVA AV.",5801,Mataderos,9,Comuna 9,1439,C1439BSJ
-58.5096511155086,-34.6594298381312,33031856/18,1-76-96-07,2019-06-27,BRAGADO 6872/76,BRAGADO 6872,Obra Media,698.58,BRAGADO,6872,Mataderos,9,Comuna 9,1440,C1440ADN
-58.5100811896815,-34.6527351270529,13934225/17,1-74-95-32,2019-06-14,ZELADA 6507/09,ZELADA 6507,Obra Menor,95.92,ZELADA,6507,Mataderos,9,Comuna 9,1440,C1440BXC
-58.5119526228061,-34.6576761408599,24530450/18,1-74-48-16,2019-09-30,ANDALGALA 1850/52,ANDALGALA 1850,Obra Media,1012.4,ANDALGALA,1850,Mataderos,9,Comuna 9,1440,C1440ENL
-58.5124085605147,-34.6580966597456,14647287/17,01-074-39B-006,2019-08-27,ANDALGALA 1845,ANDALGALA 1845,Micro Obra,,ANDALGALA,1845,Mataderos,9,Comuna 9,1440,C1440ENK
-58.5157783474642,-34.6527267992028,16873637/19,21-74-062A-014A,2019-06-27,C.DE GOMEZ 1317,CAÑADA DE GOMEZ 1317,Obra Menor,195.78,CAÑADA DE GOMEZ,1317,,9,,,
-58.4878817492786,-34.6561878549321,12135225/16,1-62-72-33,2019-06-05,CORVALAN 1947,CORVALAN 1947,Obra Menor,345.95,CORVALAN,1947,Mataderos,9,Comuna 9,1440,C1440DJE
-58.5144478385833,-34.6621440702451,20351494/18,1-76-30-6,2019-09-16,J.L.SUAREZ 2171,"SUAREZ, JOSE LEON 2171",Obra Media,622.94,"SUAREZ, JOSE LEON",2171,Mataderos,9,Comuna 9,1440,C1440EYM
-58.5042692677558,-34.6709918939235,16153946/19,17-076-009-039,2019-07-15,SALADILLO 3005,SALADILLO 3005,Obra Mayor,239.89,SALADILLO,3005,Mataderos,9,Comuna 9,1440,C1440FGI
-58.5090346252112,-34.6517235059686,12602029/19,1-74-113-30,2019-08-13,ZELADA 6375,ZELADA 6375,Obra Media,671.34,ZELADA,6375,Mataderos,9,Comuna 9,1440,C1440BWY
-58.5137332911996,-34.6562736103739,16134313/19,01-074-050,2019-07-25,ZELADA 7085,ZELADA 7085,Obra Mayor,131.97,ZELADA,7085,Mataderos,9,Comuna 9,1440,C1440BXM
-58.5140600411354,-34.6571524168871,35464553/18,1-74-40-17,2019-06-14,ZELADA 7160,ZELADA 7160,Obra Menor,379.91,ZELADA,7160,Mataderos,9,Comuna 9,1440,C1440BXP
-58.5012603990164,-34.6461092896785,35316670/18,1-060-057-019,2019-07-19,ZEQUEIRA 5565,"GARCIA GRANDE DE ZEQUEIRA, SEVERO 5565",Obra Mayor,761.42,"GARCIA GRANDE DE ZEQUEIRA, SEVERO",5565,Mataderos,9,Comuna 9,1440,C1440BTE
-58.3893418125265,-34.6130379684438,32763340/18,13-12-13-5c,2019-07-19,V.CEBALLOS 341/57,"CEVALLOS, VIRREY 341",Obra Mayor,8273.53,"CEVALLOS, VIRREY",341,Monserrat,1,Comuna 1,1077,C1077AAG
-58.3791101509566,-34.6150300793225,18469335/19,13-12-72-28,2019-08-15,TACUARI 589/91,TACUARI 589,Obra Media,500.13,TACUARI,589,Monserrat,1,Comuna 1,1071,C1071AAK
-58.3821200105798,-34.6112140070676,30016639/17,13-12-55-35,2019-06-12,LIMA 221/39,LIMA 221,Obra Menor,165.46,LIMA,221,Monserrat,1,Comuna 1,1073,C1073AAE
-58.374085738149,-34.6118779272941,35444675/18,13-2-32-8a,2019-07-29,MORENO 550/72,MORENO 550,Obra Mayor,84.38,MORENO,550,Monserrat,1,Comuna 1,1091,C1091AAL
-58.3676590052559,-34.6146351211008,18863919/18,13-2-74-000,2019-06-13,MEXICO 99,MEXICO 99,Obra Mayor,81124.63,MEXICO,99,Monserrat,1,Comuna 1,1097,C1097AAA
-58.3823453770767,-34.6146019820429,16661981/17,13-12-52-05,2019-09-16,VENEZUELA 1146,REPUBLICA BOLIVARIANA DE VENEZUELA 1146,Micro Obra,,REPUBLICA BOLIVARIANA DE VENEZUELA,1146,Monserrat,1,Comuna 1,1095,C1095AAX
-58.3840559459592,-34.6141390351052,7793615/18,13-12-044-029,2019-06-13,VENEZUELA 1267,REPUBLICA BOLIVARIANA DE VENEZUELA 1267,Obra Media,546.54,REPUBLICA BOLIVARIANA DE VENEZUELA,1267,Monserrat,1,Comuna 1,1095,C1095AAY
-58.5065784173824,-34.6242981350723,17378521/19,15-085-024-049,2019-07-03,CERVANTES 1654,CERVANTES 1654,Obra Mayor,30.19,CERVANTES,1654,Monte Castro,10,Comuna 10,1407,C1407BHD
-58.5067737633372,-34.6221355924433,34193835/18,15-85-38D-16,2019-06-28,N.TREJO 5037/37A,TREJO NEMESIO 5037,Obra Media,943.11,TREJO NEMESIO,5037,Monte Castro,10,Comuna 10,1407,C1407GHA
-58.5102118729212,-34.6214626616317,17559148/19,15-87-15a-14,2019-09-27,LASCANO 5110/12,LASCANO 5110,Micro Obra,6.12,LASCANO,5110,Monte Castro,10,Comuna 10,1417,C1417HAF
-58.5133059177706,-34.6226711087396,11900486/19,15-81-002B-023A,2019-08-07,L.DE VEGA 1869/73,LOPE DE VEGA AV. 1869,Obra Menor,410.22,LOPE DE VEGA AV.,1869,Monte Castro,10,Comuna 10,1417,C1417COB
-58.5105265555392,-34.6208497484571,19297256/19,15-087-016A-005A,2019-09-23,CERVANTES 2030/34,CERVANTES 2030,Obra Media,1669.2,CERVANTES,2030,Monte Castro,10,Comuna 10,1417,C1417CBD
-58.5035541130013,-34.6153811538738,28214210/17,15-81-3A-31,2019-08-16,ARREGUI 4445,ARREGUI 4445,Obra Media,994.52,ARREGUI,4445,Monte Castro,10,Comuna 10,1417,C1417GNQ
-58.5078713170989,-34.6215495165801,27166913/18,15-85-039A-12,2019-08-28,RENQUE CURA 1861,RENQUE CURA 1861,Obra Media,739.32,RENQUE CURA,1861,Monte Castro,10,Comuna 10,1407,C1407CME
-58.5023014718409,-34.6132510475934,15447882/19,15-081-030-033,2019-09-23,SANTO TOME 4247,SANTO TOME 4247,Obra Media,1176,SANTO TOME,4247,Monte Castro,10,Comuna 10,1417,C1417GGM
-58.4256478948984,-34.6528255778177,1743777/16,01-46-150-19,2019-08-21,TABARE 1566/70,TABARE 1566,Obra Menor,150.65,TABARE,1566,Nueva Pompeya,4,Comuna 4,1437,C1437FHL
-58.4093394775513,-34.6573678660217,2047745/19,2-34-39B-17,2019-08-20,STO DOMINGO 4389,SANTO DOMINGO 4389,Obra Menor,141.18,SANTO DOMINGO,4389,Nueva Pompeya,4,Comuna 4,1437,C1437IDK
-58.4180401929686,-34.6474809563856,5695633/19,1-38-171-5A,2019-09-10,LA PLATA 2854/56,LA PLATA AV. 2854,Obra Menor,214.85,LA PLATA AV.,2854,Nueva Pompeya,4,Comuna 4,1437,C1437DHT
-58.4018208190513,-34.6582438964832,9872967/17,2-34-84a-000,2019-07-12,IGUAZU 1837,IGUAZU 1837,Micro Obra,,IGUAZU,1837,Nueva Pompeya,4,Comuna 4,1437,C1437EUS
-58.4729086464828,-34.5391302430238,20578816/19,16-29-25-002,2019-09-30,VEDIA 2214,VEDIA 2214,Obra Menor,236.25,VEDIA,2214,Nuñez,13,Comuna 13,1429,C1429EJL
-58.4729086464828,-34.5391302430238,20578816/19,16-29-25-002,2019-09-30,VEDIA 2214,VEDIA 2214,Obra Menor,236.25,VEDIA,2214,Nuñez,13,Comuna 13,1429,C1429EJL
-58.4589351578432,-34.5527676994365,32107508/18,16-27-48B-1,2019-06-13,"O,HIGGINS 2857/61",O'HIGGINS 2857,Obra Menor,107.45,O'HIGGINS,2857,Nuñez,13,Comuna 13,1429,C1429BBA
-58.4657074848012,-34.5560275160189,17489615/19,16-41-134-10/11,2019-08-16,MOLDES 2981/83,MOLDES 2981,Micro Obra,,MOLDES,2981,Nuñez,13,Comuna 13,1429,C1429AFA
-58.4686706221001,-34.5581796129083,32523530/18,16-41-90-1c,2019-07-31,CONESA 2930/32,CONESA 2930,Obra Mayor,391.82,CONESA,2930,Nuñez,13,Comuna 13,1429,C1429ALB
-58.4742906965432,-34.5406189946964,10467875/18,16-29-12-4,2019-09-20,CABILDO 4801/61,CABILDO AV. 4801,Obra Menor,469.26,CABILDO AV.,4801,Nuñez,13,Comuna 13,1429,C1429ABG
-58.4606870457428,-34.5480537324883,17384109/19,16-027-065-019,2019-09-20,3 DE FREBRERO 3331,3 DE FEBRERO 3331,Micro Obra,,3 DE FEBRERO,3331,Nuñez,13,Comuna 13,1429,C1429BFK
-58.4590147082478,-34.548510792055,21201715/19,16-27-75-009A,2019-09-27,11 DE SEPT.3201/05,11 DE SEPTIEMBRE DE 1888 3201,Obra Media,790.58,11 DE SEPTIEMBRE DE 1888,3201,Nuñez,13,Comuna 13,1429,C1429BII
-58.4634801887882,-34.5431377147772,23557479/17,16-29-82A-9A,2019-08-28,11 DE SEPT. 3966/74,11 DE SEPTIEMBRE DE 1888 3966,Micro Obra,,11 DE SEPTIEMBRE DE 1888,3966,Nuñez,13,Comuna 13,1429,C1429BIX
-58.4612570179114,-34.5477980034931,35436441/18,16-27-54-7,2019-09-20,3 DE FEBRERO 3396,3 DE FEBRERO 3396,Obra Menor,401.59,3 DE FEBRERO,3396,Nuñez,13,Comuna 13,1429,C1429BFL
-58.4689453123368,-34.5513489271338,14628816/19,16-41-150-09,2019-08-23,AMENABAR 3465,AMENABAR 3465,Obra Menor,38,AMENABAR,3465,Nuñez,13,Comuna 13,1429,C1429AEK
-58.4617368839538,-34.5516689220894,8083951/19,16-27-39-17,2019-07-02,ARCOS 3031,ARCOS 3031,Obra Menor,35,ARCOS,3031,Nuñez,13,Comuna 13,1429,C1429AZE
-58.4650624316117,-34.5479178280257,33204965/18,16-27-33-28b,2019-06-27,ARCOS 3558,ARCOS 3558,Obra Menor,368.06,ARCOS,3558,Nuñez,13,Comuna 13,1429,C1429AZP
-58.4570702141748,-34.5495320613615,11436387/19,16-27-84-15,2019-07-01,ARRIBEÑOS 3007,ARRIBEÑOS 3007,Obra Mayor,190.63,ARRIBEÑOS,3007,,13,,,
-58.4664391920449,-34.5431657222043,16481924/19,16-29-57B-8,2019-08-12,BESARES 1976,BESARES 1976,Obra Menor,327.05,BESARES,1976,Nuñez,13,Comuna 13,1429,C1429DID
-58.47286550355,-34.5524309717534,8431472/19,16-041-107-015,2019-06-25,CONESA 3555,CONESA 3555,Obra Menor,58.4,CONESA,3555,Nuñez,13,Comuna 13,1429,C1429ALM
-58.473376803412,-34.5411046530108,17216793/19,16-29-11-13,2019-06-14,DEHEZA 2371,DEHEZA 2371,Micro Obra,,DEHEZA,2371,Nuñez,13,Comuna 13,1429,C1429EAM
-58.4572082201263,-34.5489694678701,29740678/18,16-27-084-06,2019-07-18,GUAYRA 1664,GUAYRA 1664,Obra Mayor,684.58,GUAYRA,1664,Nuñez,13,Comuna 13,1429,C1429CID
-58.4613225451989,-34.5516269285693,32667111/18,16-27-39-25,2019-09-30,IBERA 2063,IBERA 2063,Obra Media,708.07,IBERA,2063,Nuñez,13,Comuna 13,1429,C1429CMA
-58.4685440139171,-34.5457900075202,18063688/19,16-29-17-14,2019-07-18,PAROISSIEN 2287,PAROISSIEN 2287,Obra Mayor,974.16,PAROISSIEN,2287,Nuñez,13,Comuna 13,1429,C1429CXG
-58.4697480601765,-34.5579639828982,17650608/19,16-41-90-14,2019-08-20,QUESADA 3088,QUESADA 3088,Obra Menor,270.6,QUESADA,3088,Nuñez,13,Comuna 13,1429,C1429COX
-58.4336329793278,-34.5900795647974,18104411/18,18-31-112-009/010,2019-07-30,THAMES 1343/47,THAMES 1343,Obra Mayor,2388.6,THAMES,1343,Palermo,14,Comuna 14,1414,C1414DDA
-58.424638828733,-34.5835622417359,23821397/19,18-19-141-11,2019-09-24,THAMES 2251/55,THAMES 2251,Obra Menor,281.2,THAMES,2251,Palermo,14,Comuna 14,1425,C1425FIE
-58.4450469880686,-34.5685323028822,16660193/19,17-023-029-041,2019-07-15,T.GARCIA 2341/43,"GARCIA, TEODORO 2341",Obra Mayor,589.95,"GARCIA, TEODORO",2341,Palermo,14,Comuna 14,1426,C1426DMO
-58.4442940717193,-34.5675962635815,20978416/16,17-23-30-171,2019-08-13,T.GARCIA 2259/63,"GARCIA, TEODORO 2259",Micro Obra,,"GARCIA, TEODORO",2259,Palermo,14,Comuna 14,1426,C1426DMM
-58.4372342314987,-34.5769402157986,28023457/16,17-35-90-020,2019-06-18,SOLER 6073/77,SOLER 6073,Obra Media,2227.19,SOLER,6073,Palermo,14,Comuna 14,1425,C1425BYO
-58.4149574130907,-34.5937911079293,32830084/18,15-004-003,2019-08-15,SOLER 3644/50,SOLER 3644,Obra Media,1213.14,SOLER,3644,Palermo,14,Comuna 14,1425,C1425BWJ
-58.4220252016866,-34.5735979707693,16944814/17,18-21-90-28A,2019-06-13,SEGUI 4646/62,"SEGUI, JUAN FRANCISCO 4646",Obra Menor,341.12,"SEGUI, JUAN FRANCISCO",4646,Palermo,14,Comuna 14,1425,C1425ADF
-58.4199926357512,-34.5828186109323,15969107/19,18-19-170-41,2019-07-31,SANTA FE 3984/88,SANTA FE AV. 3984,Obra Mayor,650.34,SANTA FE AV.,3984,Palermo,14,Comuna 14,1425,C1425BHO
-58.4255795629926,-34.5909460262078,9590519/18,18-19-048-034,2019-08-08,S.ORTIZ 1562/64,"SCALABRINI ORTIZ, RAUL AV. 1562",Obra Mayor,3010.71,"SCALABRINI ORTIZ, RAUL AV.",1562,Palermo,14,Comuna 14,1414,C1414DOP
-58.4124606719352,-34.5795086407412,29917317/18,18-21-64-12,2019-08-29,R.A.SIRIA 3183/85,REPUBLICA ARABE SIRIA 3183,Obra Media,1865.59,REPUBLICA ARABE SIRIA,3183,Palermo,14,Comuna 14,1425,C1425EYM
-58.4276053944392,-34.5818290280527,26670587/15,18-19-145-17d,2019-09-26,PARAGUAY 4871/99,PARAGUAY 4871,Micro Obra,,PARAGUAY,4871,Palermo,14,Comuna 14,1425,C1425BSU
-58.4291410813632,-34.5848887899487,30402527/17,18-19-95-17,2019-08-16,NICARAGUA 5087/89,NICARAGUA 5087,Obra Media,882.66,NICARAGUA,5087,Palermo,14,Comuna 14,1414,C1414BVO
-58.4428969427479,-34.5838438444578,16390475/19,17-33-84-20a,2019-07-30,N.VEGA 5955/69,"VEGA, NICETO, CNEL. AV. 5955",Obra Mayor,2658,"VEGA, NICETO, CNEL. AV.",5955,Palermo,14,Comuna 14,1414,C1414BFK
-58.4407853283558,-34.5853495011413,30278601/17,17-33-82-29A,2019-09-20,N.VEGA 5765/81,"VEGA, NICETO, CNEL. AV. 5765",Micro Obra,,"VEGA, NICETO, CNEL. AV.",5765,Palermo,14,Comuna 14,1414,C1414BFG
-58.414993410662,-34.594597873612,6890830/16,19-15-3-52,2019-08-27,M.BRAVO 1302/06,"BRAVO, MARIO 1302",Obra Menor,259.03,"BRAVO, MARIO",1302,Palermo,14,Comuna 14,1175,C1175ABZ
-58.4372688503632,-34.5675950923405,19101539/19,17-23-87,2019-07-18,L.M.CAMPOS 901/87,"CAMPOS, LUIS M. AV. 901",Obra Mayor,32.84,"CAMPOS, LUIS M. AV.",901,Palermo,14,Comuna 14,1426,C1426BOH
-58.3972894174683,-34.5783466243313,20249254/19,19-15-162A-059,2019-07-31,JUEZ TEDIN 2739/45,"TEDIN, JUEZ 2739",Obra Mayor,2451.55,"TEDIN, JUEZ",2739,Palermo,14,Comuna 14,1425,C1425CWA
-58.4039448948191,-34.5758334060524,13207935/18,18-21-118-6b,2019-06-25,J.SALGUERO 3147/3211,"SALGUERO, JERONIMO 3147",Micro Obra,,"SALGUERO, JERONIMO",3147,Palermo,14,Comuna 14,1425,C1425DFC
-58.4186439571222,-34.5964255229725,28394748/19,18-19-5-25,2019-09-30,J.SALGUERO 1205/09,"SALGUERO, JERONIMO 1205",Micro Obra,,"SALGUERO, JERONIMO",1205,Palermo,14,Comuna 14,1177,C1177AEW
-58.4186439571222,-34.5964255229725,28394748/19,18-19-5-25,2019-09-26,J.SALGUERO 1205/09,"SALGUERO, JERONIMO 1205",Obra Media,2159.63,"SALGUERO, JERONIMO",1205,Palermo,14,Comuna 14,1177,C1177AEW
-58.4249711127365,-34.5796598774029,34980659/18,18-19-176--33,2019-07-29,J.S.M.DE ORO 2466/70,FRAY JUSTO SANTAMARIA DE ORO 2466,Obra Mayor,994.97,FRAY JUSTO SANTAMARIA DE ORO,2466,Palermo,14,Comuna 14,1425,C1425FOJ
-58.4313554952547,-34.5734441870026,21190277/17,17-23-70-02,2019-09-16,HUERGO 244/46,HUERGO 244,Micro Obra,,HUERGO,244,Palermo,14,Comuna 14,1426,C1426BQD
-58.4244456480227,-34.5924817684509,21910998/19,18-19-46-24,2019-09-05,HONDURAS 4431/35,HONDURAS 4431,Micro Obra,22,HONDURAS,4431,Palermo,14,Comuna 14,1414,C1414BME
-58.4320534249402,-34.5800242154,18101807/18,17-035-100-028/029,2019-07-24,GUATEMALA 5621/29,GUATEMALA 5621,Obra Mayor,3981.32,GUATEMALA,5621,Palermo,14,Comuna 14,1425,C1425BVI
-58.4227365503188,-34.5955783923992,22386441/18,18-19-8-15a,2019-07-24,GASCON 1279/87,GASCON 1279,Obra Mayor,4473.39,GASCON,1279,Palermo,14,Comuna 14,1181,C1181ACW
-58.4243265828817,-34.5773812533655,20019069/19,18-021-028-020,2019-08-28,G.CRUZ 2818/22,GODOY CRUZ 2818,Micro Obra,,GODOY CRUZ,2818,Palermo,14,Comuna 14,1425,C1425FQN
-58.4212195153086,-34.5761156564807,9548769/18,18-21-53-3,2019-09-17,FR.J.S.M.DE ORO 2795/99,FRAY JUSTO SANTAMARIA DE ORO 2795,Obra Media,1814.2,FRAY JUSTO SANTAMARIA DE ORO,2795,Palermo,14,Comuna 14,1425,C1425FOO
-58.441299019055,-34.565718996733,32055579/18,17-23-27-18a,2019-08-20,F.LACROZE 1947/59,"LACROZE, FEDERICO AV. 1947",Obra Mayor,9996.2,"LACROZE, FEDERICO AV.",1947,Palermo,14,Comuna 14,1426,C1426CPE
-58.4012306101632,-34.5787395214585,13158408/18,19-15-166-20,2019-06-14,E.SIVORI 2936/38,"SIVORI, EDUARDO 2936",Obra Menor,450.07,"SIVORI, EDUARDO",2936,Palermo,14,Comuna 14,1425,C1425DXB
-58.4250798090731,-34.5818431675971,21499203/18,18-19-158-18A,2019-06-18,DARRAGUEIRA 2317/21,DARREGUEYRA 2317,Obra Media,1175.23,DARREGUEYRA,2317,Palermo,14,Comuna 14,1425,C1425FLD
-58.4440172470317,-34.5700447786031,25229911/19,17-23-20-21,2019-09-24,CABILDO 701/15,CABILDO AV. 701,Micro Obra,,CABILDO AV.,701,Palermo,14,Comuna 14,1426,C1426AAH
-58.4198226222309,-34.5912392811639,34972109/18,18-19-74-31,2019-06-26,C.RICA 4051/53,COSTA RICA 4051,Obra Media,1615.9,COSTA RICA,4051,Palermo,14,Comuna 14,1176,C1176ADC
-58.4273169351444,-34.5897233318529,13075414/19,18-19-049-14,2019-08-08,ARMENIA 1679/83,ARMENIA 1679,Obra Menor,269.63,ARMENIA,1679,Palermo,14,Comuna 14,1414,C1414DKI
-58.4430381605464,-34.5827413589148,27998788/18,17-33-85-44B,2019-08-28,AREVALO 1470/76A,AREVALO 1470,Micro Obra,,AREVALO,1470,Palermo,14,Comuna 14,1414,C1414CQD
-58.4320433499562,-34.5704299675943,34848672/18,23-23-82-2A/3,2019-08-07,ARCE 434/60,ARCE 434,Obra Mayor,5099.78,ARCE,434,Palermo,14,Comuna 14,1426,C1426BSF
-58.4336178787936,-34.574622424149,19274889/18,17-23-004-018,2019-06-06,ANCON 5347/49,ANCON 5347,Obra Media,1181.99,ANCON,5347,Palermo,14,Comuna 14,1425,C1425BZE
-58.4300310253232,-34.5720251559492,12120659/19,17-23-80-29d,2019-07-10,ARGUIBEL 2860,"ARGUIBEL, ANDRES 2860",Micro Obra,,"ARGUIBEL, ANDRES",2860,Palermo,14,Comuna 14,1426,C1426DKB
-58.4381451701999,-34.5767382035151,20105889/19,17-35-78-2,2019-09-30,C.DE LA PAZ 16,CIUDAD DE LA PAZ 16,Obra Menor,311.17,CIUDAD DE LA PAZ,16,Palermo,14,Comuna 14,1426,C1426AFB
-58.4394343015213,-34.5839387326257,31318002/18,17-035-004-015,2019-08-27,CARRANZA 1559,"CARRANZA, ANGEL JUSTINIANO 1559",Obra Menor,50,"CARRANZA, ANGEL JUSTINIANO",1559,Palermo,14,Comuna 14,1414,C1414COO
-58.4042515594112,-34.5786588434723,7028087/19,18-21-101-12,2019-06-03,CASTEX 3285/89,CASTEX 3285,Micro Obra,24.63,CASTEX,3285,Palermo,14,Comuna 14,1425,C1425CDC
-58.4407758488818,-34.5798496403061,22937043/19,17-35-35D-14,2019-09-16,CONVENCION 1944,CONVENCION 1944,Micro Obra,,CONVENCION,1944,Palermo,14,Comuna 14,1414,C1414CRB
-58.44298365198,-34.5854097275284,32394029/18,17-33-70-24,2019-07-11,CORDOBA 5877,CORDOBA AV. 5877,Obra Mayor,2031.9,CORDOBA AV.,5877,Palermo,14,Comuna 14,1414,C1414BBE
-58.4401509176072,-34.5792215656335,13659133/18,17-35-049-23,2019-06-07,EL SALVADOR 6083,EL SALVADOR 6083,Obra Menor,116.53,EL SALVADOR,6083,Palermo,14,Comuna 14,1414,C1414BQM
-58.4294463592457,-34.5852354926994,32527820/18,18-19-087-06,2019-07-31,F.J.S.M.DE ORO 1887,FRAY JUSTO SANTAMARIA DE ORO 1887,Obra Mayor,158.8,FRAY JUSTO SANTAMARIA DE ORO,1887,Palermo,14,Comuna 14,1414,C1414DBC
-58.4395601391157,-34.5639209529293,34134673/18,17-23-113-23a,2019-06-19,F.LACROZE 1755,"LACROZE, FEDERICO 1755",Obra Media,1432.9,"LACROZE, FEDERICO",1755,Palermo,14,Comuna 14,1426,C1426CPC
-58.4222148866879,-34.5838217846106,32750635/18,18-19-155-15B,2019-08-16,GURRUCHAGA 2332,GURRUCHAGA 2332,Obra Media,1149.97,GURRUCHAGA,2332,Palermo,14,Comuna 14,1425,C1425FEJ
-58.4391113061429,-34.5880458391269,35256895/18,17-33-66B-8,2019-09-30,HUMBOLDT 1317,HUMBOLDT 1317,Obra Media,1670.75,HUMBOLDT,1317,Palermo,14,Comuna 14,1414,C1414CTI
-58.4346287082909,-34.5671354894024,17675611/16,17-28-108-12,2019-06-07,J.NEWBERY 1680/82,"NEWBERY, JORGE 1680",Micro Obra,,"NEWBERY, JORGE",1680,Palermo,14,Comuna 14,1426,C1426CXD
-58.4400633974419,-34.5661919574575,11907472/19,017-023-023-003,2019-06-12,L.M.CAMPOS 1126,"CAMPOS, LUIS M. AV. 1126",Micro Obra,,"CAMPOS, LUIS M. AV.",1126,Palermo,14,Comuna 14,1426,C1426BOW
-58.4325522063854,-34.5738760561231,20351819/17,17-23-6-1h,2019-09-20,L.M.CAMPOS 280,"CAMPOS, LUIS M. AV. 280",Obra Menor,137.13,"CAMPOS, LUIS M. AV.",280,Palermo,14,Comuna 14,1426,C1426BON
-58.4196440998815,-34.5957050524832,34877666/18,18-19-6-10,2019-06-05,MEDRANO 1177,MEDRANO 1177,Obra Menor,244.09,MEDRANO,1177,Palermo,14,Comuna 14,1179,C1179AAU
-58.4419442762987,-34.5845137935835,13785001/18,17-33-83C-14,2019-07-30,NICETO VEGA 5871,"VEGA, NICETO, CNEL. AV. 5871",Obra Mayor,86.23,"VEGA, NICETO, CNEL. AV.",5871,Palermo,14,Comuna 14,1414,C1414BFI
-58.4413398472812,-34.5683260857807,30234471/18,17-23-019-008,2019-06-04,OLLEROS 2130,OLLEROS 2130,Obra Menor,158.55,OLLEROS,2130,Palermo,14,Comuna 14,1426,C1426CRN
-58.4274987897112,-34.5818480494066,6481747/17,18-19-145-019C,2019-06-04,PARAGUAY 4865/69,PARAGUAY 4865,Obra Media,2418.21,PARAGUAY,4865,Palermo,14,Comuna 14,1425,C1425BSU
-58.4279307860475,-34.5932266827823,14538114/19,18-31-102-01,2019-07-05,SCALABRINI ORTIZ 1295,"SCALABRINI ORTIZ, RAUL AV. 1295",Micro Obra,,"SCALABRINI ORTIZ, RAUL AV.",1295,Palermo,14,Comuna 14,1414,C1414DNM
-58.4273820236182,-34.5830990823713,31600045/18,18-19-123-13,2019-08-08,STA M. DE ORO 2155,FRAY JUSTO SANTAMARIA DE ORO 2155,Obra Mayor,3394.31,FRAY JUSTO SANTAMARIA DE ORO,2155,Palermo,14,Comuna 14,1425,C1425FOC
-58.4256766366007,-34.5827894532788,10767562/18,18-19-143-23,2019-09-25,URIARTE 2246,URIARTE 2246,Obra Menor,70.12,URIARTE,2246,Palermo,14,Comuna 14,1425,C1425FNF
-58.416728612233,-34.5916094011272,25822080/19,18-19-099-030,2019-09-20,VIDT 1636,VIDT 1636,Obra Media,1949.58,VIDT,1636,Palermo,14,Comuna 14,1425,C1425DJB
-58.4407154743246,-34.5735511465489,20671875/19,17-35-108-15,2019-08-02,ZAPATA 301,ZAPATA 301,Obra Media,957.8,ZAPATA,301,Palermo,14,Comuna 14,1426,C1426AEE
-58.4406845925731,-34.6374495409438,15964129/19,1-044-137B-012A,2019-08-20,A.DIAZ 1451,"DIAZ, AVELINO 1451",Obra Menor,109.1,"DIAZ, AVELINO",1451,Parque Chacabuco,7,Comuna 7,1406,C1406IBC
-58.4387110965661,-34.6291350567234,24812369/18,6-40-29-29,2019-06-26,THOMPSON 819/21,THOMPSON 819,Obra Media,1378.95,THOMPSON,819,Parque Chacabuco,7,Comuna 7,1424,C1424ALI
-58.4513795013886,-34.6352969993144,14371111/19,5-42-1A-1,2019-08-20,PUMACAHUA 803/05,PUMACAHUA 803,Obra Menor,64.2,PUMACAHUA,803,Parque Chacabuco,7,Comuna 7,1406,C1406DCQ
-58.4433986511436,-34.6390840331507,27913009/16,1-44-115-11,2019-08-28,MIRO 1570/72,MIRO 1570,Obra Media,729.81,MIRO,1570,Parque Chacabuco,7,Comuna 7,1406,C1406CVF
-58.4473679612263,-34.6303903531698,35221840/18,5-42-57-12a,2019-06-11,DIRECTORIO 1424/44,DIRECTORIO AV. 1424,Obra Menor,77.12,DIRECTORIO AV.,1424,Parque Chacabuco,7,Comuna 7,1406,C1406GZQ
-58.4461776355226,-34.6335503879915,35361434/18,5-42-54-4a,2019-08-26,1º JUNTA 1470/72,PRIMERA JUNTA 1470,Obra Media,910.66,PRIMERA JUNTA,1470,Parque Chacabuco,7,Comuna 7,1406,C1406HKD
-58.4474039081633,-34.6377916411317,33063170/18,1-44-96-003,2019-06-27,ASAMBLEA 1614,ASAMBLEA AV. 1614,Obra Mayor,3135.2,ASAMBLEA AV.,1614,Parque Chacabuco,7,Comuna 7,1406,C1406HVT
-58.4298875098343,-34.6396622068076,6495288/19,1-38-47-16-,2019-06-10,BEAUCHEF 1948/50,BEAUCHEF 1948,Obra Menor,84.55,BEAUCHEF,1948,Parque Chacabuco,7,Comuna 7,1424,C1424BEN
-58.4446660271453,-34.6378702960404,21985583/19,1-44-108-18,2019-08-05,CURAPALIGUE 1350,CURAPALIGUE AV. 1350,Obra Menor,44.9,CURAPALIGUE AV.,1350,Parque Chacabuco,7,Comuna 7,1406,C1406DBN
-58.443327130553,-34.6300201930128,31545327/18,5-82-81-29,2019-09-17,G.LAFERRERE 1127,"LAFERRERE, GREGORIO DE 1127",Obra Media,1724.61,"LAFERRERE, GREGORIO DE",1127,Parque Chacabuco,7,Comuna 7,1406,C1406HEA
-58.4484879531957,-34.6327769611706,22625631/19,5-42-28A-25,2019-08-30,M.ARGENTINAS 775,MALVINAS ARGENTINAS 775,Obra Menor,216.07,MALVINAS ARGENTINAS,775,Parque Chacabuco,7,Comuna 7,1406,C1406CXO
-58.4310852448517,-34.6287602806993,35378142/18,6-40-94-24,2019-06-05,ZUVIRIA 315,ZUVIRIA 315,Micro Obra,,ZUVIRIA,315,Parque Chacabuco,7,Comuna 7,1424,C1424CKG
-58.4762885689743,-34.5817475761556,21942118/19,15-61-90-24,2019-08-13,TREVERIS 2419/21,TREVERIS 2419,Micro Obra,,TREVERIS,2419,Parque Chas,15,Comuna 15,1431,C1431DIC
-58.4748514727871,-34.5848245098645,20557789/18,15-61-50-16,2019-09-27,GAMARRA 1245/49,GAMARRA 1245,Obra Media,1302.26,GAMARRA,1245,Parque Chas,15,Comuna 15,1427,C1427AYC
-58.4838315546465,-34.584839295063,31978844/18,15-61-159-21,2019-08-27,GANDARA 3165/67,GANDARA 3165,Obra Menor,240.8,GANDARA,3165,Parque Chas,15,Comuna 15,,
-58.4751146358355,-34.5840755626154,33051674/18,15-61-51-22,2019-07-01,BERGHING 2563,BEHRING 2563,Obra Mayor,1216.94,BEHRING,2563,Parque Chas,15,Comuna 15,1427,C1427DFA
-58.474723588694,-34.5844161452797,35312834/18,15-61-50-9,2019-06-27,BEHRING 2574/76,BEHRING 2574,Obra Media,1446.22,BEHRING,2574,Parque Chas,15,Comuna 15,1427,C1427DFB
-58.4746919539986,-34.589725704062,33358670/18,15-61-28-28,2019-07-29,BAUNESS 938/40,BAUNESS 938,Obra Mayor,405.03,BAUNESS,938,Parque Chas,15,Comuna 15,1427,C1427BCL
-58.4861673502093,-34.5840161462067,27306110/18,15-61-158-18,2019-08-28,BALLIVIAN 3267/69,BALLIVIAN 3267,Obra Menor,207.76,BALLIVIAN,3267,Parque Chas,15,Comuna 15,1431,C1431CUO
-58.4750668877547,-34.5831914027409,33363224/18,15-61-81-29,2019-08-20,ARISMENDI 2519,ARISMENDI 2519,Obra Media,838.28,ARISMENDI,2519,Parque Chas,15,Comuna 15,1427,C1427DLC
-58.4764030176307,-34.5856534587536,24945988/19,15-61-53-25,2019-08-29,BEHRING 2687,BEHRING 2687,Micro Obra,,BEHRING,2687,Parque Chas,15,Comuna 15,1427,C1427DFC
-58.480185852717,-34.5825736696247,30059661/18,15-61-179-10,2019-07-12,BERLIN 4176,BERLIN 4176,Obra Mayor,149.98,BERLIN,4176,Parque Chas,15,Comuna 15,1431,C1431DJF
-58.4761404090323,-34.583939493465,6297050/17,15-61-79-38,2019-07-01,GAMARRA 1418,GAMARRA 1418,Obra Media,797,GAMARRA,1418,Parque Chas,15,Comuna 15,1427,C1427AYH
-58.4756599525802,-34.5873059427105,34898064/19,15-61-43-7,2019-08-02,TASSO 2750,TASSO 2750,Obra Menor,188.6,TASSO,2750,Parque Chas,15,Comuna 15,1427,C1427DDD
-58.4740315589532,-34.5834266002377,17332068/19,15-61-49-17,2019-08-08,TORRENT 1267,TORRENT 1267,Micro Obra,,TORRENT,1267,Parque Chas,15,Comuna 15,1427,C1427AVC
-58.4106346063828,-34.6348083157461,27163966/18,15-59-43-8,2019-07-18,SANCHEZ 2058/60,SANCHEZ DE LORIA AV. 2058,Obra Mayor,2051.03,SANCHEZ DE LORIA AV.,2058,Parque Patricios,4,Comuna 4,1241,C1241ACP
-58.4079723780566,-34.6300017915911,34222162/18,002-032-109-020,2019-09-30,GRAL.URQUIZA 1638/40,"URQUIZA, GRAL. 1638",Obra Mayor,3328.89,"URQUIZA, GRAL.",1638,Parque Patricios,4,Comuna 4,1243,C1243AEJ
-58.4032859739901,-34.6366239230145,16350436/18,02-24-28-26,2019-07-18,CASEROS 2871/75,CASEROS AV. 2871,Obra Mayor,1363.99,CASEROS AV.,2871,Parque Patricios,4,Comuna 4,1264,C1264AAI
-58.391679823925,-34.6346298809887,27324361/16,11-24-95-12,2019-09-30,CASEROS 2080/84,CASEROS AV. 2080,Obra Media,822.21,CASEROS AV.,2080,Parque Patricios,4,Comuna 4,1264,C1264AAN
-58.3980717770461,-34.638991227107,14634396/19,2-24-49-44,2019-07-05,COLONIA 259,COLONIA AV. 259,Obra Mayor,42.34,COLONIA AV.,259,Parque Patricios,4,Comuna 4,1437,C1437JNE
-58.461474209503,-34.5979864882267,19255064/18,15-59-106-29,2019-07-25,SEGUI 2472/74,"SEGUI, F. J., ALTE. 2472",Obra Mayor,153.73,"SEGUI, F. J., ALTE.",2472,Paternal,15,Comuna 15,1416,C1416BYB
-58.4643826392293,-34.5974515437592,16877723/19,15-59-104-025,2019-07-24,J.A.GARCIA 1135/37,"GARCIA, JUAN AGUSTIN 1135",Obra Mayor,113.92,"GARCIA, JUAN AGUSTIN",1135,Paternal,15,Comuna 15,1416,C1416EKC
-58.4672897072021,-34.5997568551382,29975946/17,15-59-58-08,2019-08-07,CUCHA CUCHA 2738/40,CUCHA CUCHA 2738,Obra Media,1724.43,CUCHA CUCHA,2738,Paternal,15,Comuna 15,1416,C1416CKH
-58.3617831617231,-34.6227185128121,34797062/18,21-98-1V-011,2019-07-18,ELVIRA RAWSON 340,"RAWSON DE DELLEPIANE, ELVIRA AV. 340",Obra Mayor,50284.82,"RAWSON DE DELLEPIANE, ELVIRA AV.",340,Puerto Madero,1,Comuna 1,1107,C1107BCA
-58.40221090712,-34.5947400707559,16177493/19,19-011-004-009a,2019-07-29,SANTA FE 2496/500,SANTA FE AV. 2496,Micro Obra,,SANTA FE AV.,2496,Recoleta,2,Comuna 2,1123,C1123AAT
-58.4027630004828,-34.5840750433848,24522369/18,19-15-54-61,2019-06-28,S.DE BUSTAM.2540/42,SANCHEZ DE BUSTAMANTE 2540,Micro Obra,,SANCHEZ DE BUSTAMANTE,2540,Recoleta,2,Comuna 2,1425,C1425DUZ
-58.4027980960341,-34.5963378444928,28434626/19,19-11-03-17E,2019-09-27,PUEYRREDON 1233/39,PUEYRREDON AV. 1233,Micro Obra,,PUEYRREDON AV.,1233,Recoleta,2,Comuna 2,1118,C1118AAC
-58.4010095584605,-34.5751501547032,34740458/18,19-15-173-F,2019-08-27,O.DE OCAMPO 3220/50,ORTIZ DE OCAMPO AV. 3220,Micro Obra,,ORTIZ DE OCAMPO AV.,3220,Recoleta,2,Comuna 2,1425,C1425DSU
-58.3873230398936,-34.5972484503658,14157147/19,20-07-033-003,2019-06-27,M.T.ALVEAR 1418/20,"ALVEAR, MARCELO T. DE 1418",Obra Menor,101.56,"ALVEAR, MARCELO T. DE",1418,Recoleta,2,Comuna 2,1060,C1060AAB
-58.4082225504648,-34.5925419058175,27324304/18,19-15-84-1,2019-07-11,GUEMES 2902/24,GUEMES 2902,Obra Mayor,3927.8,GUEMES,2902,Recoleta,2,Comuna 2,1425,C1425BKB
-58.410125274341,-34.5979100887535,24357521/19,19-015-100-018,2019-08-27,CORDOBA 3093/99,CORDOBA AV. 3093,Obra Media,2347.08,CORDOBA AV.,3093,Recoleta,2,Comuna 2,1187,C1187AAE
-58.4084385056089,-34.597760220095,35404171/18,19-15-113-25e,2019-06-11,CORDOBA 2919/27,CORDOBA AV. 2919,Obra Mayor,3700.84,CORDOBA AV.,2919,Recoleta,2,Comuna 2,1187,C1187AAD
-58.3900229825104,-34.5992247758349,26906643/15,20-7-13-21a,2019-08-12,CORDOBA 1601/57,CORDOBA AV. 1601,Micro Obra,,CORDOBA AV.,1601,Recoleta,2,Comuna 2,1055,C1055AAG
-58.4063398122375,-34.5943456467166,12294657/17,19-15-116-43,2019-06-27,ANCHORENA 1288/92,"ANCHORENA, TOMAS MANUEL DE, DR. 1288",Micro Obra,,"ANCHORENA, TOMAS MANUEL DE, DR.",1288,Recoleta,2,Comuna 2,1425,C1425ELD
-58.409615331059,-34.5963297054718,20581571/19,19-15-101-15,2019-07-11,AGÜERO 1151/57,AGUERO 1151,Micro Obra,,AGUERO,1151,Recoleta,2,Comuna 2,1425,C1425EHA
-58.4132493061942,-34.5945783120929,21871711/19,19-15-43-13a,2019-09-17,BILLINGHURST 1323,BILLINGHURST 1323,Obra Menor,131.48,BILLINGHURST,1323,Recoleta,2,Comuna 2,1425,C1425DTA
-58.3907090804299,-34.5962156291173,21433822/19,20-07-017-08,2019-07-15,SANTA FE 1638,SANTA FE AV. 1638,Obra Mayor,145.36,SANTA FE AV.,1638,Recoleta,2,Comuna 2,1060,C1060ABP
-58.4124778106401,-34.5953959985254,31960715/18,19-15-61-15,2019-06-14,SOLER 3395,SOLER 3395,Obra Media,1262.29,SOLER,3395,Recoleta,2,Comuna 2,1425,C1425BWC
-58.4828604058039,-34.547302600609,12664123/17,12-43-062-013,2019-06-28,SUPERI 4447 U.F.1,SUPERI 4447,Obra Menor,42.84,SUPERI,4447,Saavedra,12,Comuna 12,1430,C1430FGG
-58.4757259646794,-34.5407951729923,20974841/18,16-43-165-2o,2019-08-12,SAN ISIDRO 4802/14,SAN ISIDRO LABRADOR AV. 4802,Obra Mayor,67833.49,SAN ISIDRO LABRADOR AV.,4802,Saavedra,12,Comuna 12,1429,C1429ADW
-58.4955418900399,-34.5537046390543,26974816/19,16-55-128-07,2019-09-26,RAMALLO 4884/86,RAMALLO 4884,Obra Menor,402.24,RAMALLO,4884,Saavedra,12,Comuna 12,1430,C1430CQN
-58.4741157628246,-34.5451493085412,21086388/19,16-43-159-28,2019-07-31,R.HUIDOBRO 2605/07,RUIZ HUIDOBRO 2605,Obra Mayor,84.76,RUIZ HUIDOBRO,2605,Saavedra,12,Comuna 12,1429,C1429DNQ
-58.4921767142649,-34.5549406868083,29889654/17,16-55-154-5,2019-07-15,R.BALBIN 4289/99,"BALBIN, RICARDO, DR. AV. 4289",Obra Mayor,2452.85,"BALBIN, RICARDO, DR. AV.",4289,Saavedra,12,Comuna 12,1430,C1430ABA
-58.4778319269532,-34.5492839821351,35465283/18,15-43-83-6,2019-06-24,PINTO 4018/60,PINTO 4018,Obra Media,813.12,PINTO,4018,Saavedra,12,Comuna 12,1429,C1429APR
-58.4822802973073,-34.5522584051922,20962298/19,16-43-19-3a,2019-08-28,PAROISSIEN 3726/30,PAROISSIEN 3726,Obra Media,601.58,PAROISSIEN,3726,Saavedra,12,Comuna 12,1430,C1430CCD
-58.480910539591,-34.5540434474615,1613636/19,16-43-017-018,2019-06-26,MELIAN 3726/28,MELIAN AV. 3726,Micro Obra,12.06,MELIAN AV.,3726,Saavedra,12,Comuna 12,1430,C1430EZB
-58.4844695903024,-34.5516551897276,34189379/18,16-43-07-16,2019-09-20,VILELA 3869/71,VILELA 3869,Obra Media,939.31,VILELA,3869,Saavedra,12,Comuna 12,1430,C1430CEI
-58.4888682209653,-34.5580440808892,20274151/19,016-055-164-014,2019-08-28,M.ACHA 3725/29,"ACHA, MARIANO, GRAL. 3725",Obra Menor,476.37,"ACHA, MARIANO, GRAL.",3725,Saavedra,12,Comuna 12,1430,C1430DVW
-58.4891137808349,-34.5587401450612,30330604/18,16-55-148B-3,2019-06-27,JARAMILLO 4622/24,JARAMILLO 4622,Obra Menor,30.51,JARAMILLO,4622,Saavedra,12,Comuna 12,1430,C1430AHJ
-58.474149534777,-34.5506134263633,17464029/19,16-043-127-015,2019-06-28,JARAMILLO 2965 U.F.1,JARAMILLO 2965,Obra Menor,143.6,JARAMILLO,2965,Saavedra,12,Comuna 12,1429,C1429CRU
-58.501085791487,-34.5625088684611,19382389/17,16-55-32-8,2019-07-18,C.PELLEGRINI 5609/17,"PELLEGRINI, CARLOS E. 5609",Obra Mayor,454.63,"PELLEGRINI, CARLOS E.",5609,Saavedra,12,Comuna 12,1431,C1431BKA
-58.4792171125374,-34.5442893131606,17166777/19,16-43-107-1g,2019-09-13,ARIAS 3010/20,ARIAS 3010,Micro Obra,,ARIAS,3010,Saavedra,12,Comuna 12,1429,C1429DYB
-58.4714409992256,-34.5462626410482,32322509/18,15-43-177-16a/21a,2019-07-31,VILELA 2521/57,VILELA 2521,Obra Mayor,5797.29,VILELA,2521,Saavedra,12,Comuna 12,1429,C1429DAM
-58.5001373811247,-34.5634122237286,14674026/19,16-55-20-16,2019-06-19,ANDONAEGUI 3720/26,ANDONAEGUI 3720,Micro Obra,12.7,ANDONAEGUI,3720,Saavedra,12,Comuna 12,1431,C1431DXB
-58.4701533578771,-34.5498691151495,35357007/18,16-43-174-10B,2019-07-24,AMENABAR 3607/11,AMENABAR 3607,Obra Mayor,1624.97,AMENABAR,3607,Saavedra,12,Comuna 12,1429,C1429AEO
-58.5011935971965,-34.5652651118063,27412448/19,16-55-12-3,2019-09-25,20 DE FEBRERO 5752,20 DE FEBRERO 5752,Micro Obra,18.62,20 DE FEBRERO,5752,Saavedra,12,Comuna 12,1431,C1431BBD
-58.5058638119327,-34.5644236571237,25094938/19,55-24-4,2019-09-20,AIZPURUA 3831,AIZPURUA 3831,Obra Menor,427.06,AIZPURUA,3831,Saavedra,12,Comuna 12,1431,C1431ESC
-58.4829556477251,-34.5499002048863,23547612/19,16-43-35-22,2019-08-08,BESARES 3625,BESARES 3625,Micro Obra,5.73,BESARES,3625,Saavedra,12,Comuna 12,1430,C1430CHE
-58.4835628820142,-34.5505971761703,7703987/19,16-43-21c-2,2019-07-18,BESARES 3710,BESARES 3710,Obra Mayor,85.17,BESARES,3710,Saavedra,12,Comuna 12,1430,C1430CHH
-58.4702720262955,-34.547557734429,16811193/19,16-43-180-6,2019-08-02,C.DE LA PAZ 3775,CIUDAD DE LA PAZ 3775,Micro Obra,22.33,CIUDAD DE LA PAZ,3775,Saavedra,12,Comuna 12,1429,C1429ACQ
-58.4693097162186,-34.5492931098385,36724542/15,16-43-179-10,2019-06-24,C.LARRALDE 2491,"LARRALDE, CRISOLOGO AV. 2491",Micro Obra,,"LARRALDE, CRISOLOGO AV.",2491,Saavedra,12,Comuna 12,1429,C1429BTE
-58.4775588981212,-34.5449833502991,35480387/18,16-49-134-11,2019-07-01,CONESA 4465,CONESA 4465,Obra Mayor,96.72,CONESA,4465,Saavedra,12,Comuna 12,1429,C1429AME
-58.4958839930274,-34.5512070477991,21420879/19,16-55-145-20,2019-09-24,DEHEZA 4751,DEHEZA 4751,Micro Obra,,DEHEZA,4751,Saavedra,12,Comuna 12,1430,C1430CVK
-58.4978351387536,-34.5523345360098,16474629/19,16-55-116-20,2019-06-12,DEHEZA 4975,DEHEZA 4975,Micro Obra,,DEHEZA,4975,Saavedra,12,Comuna 12,1430,C1430CVO
-58.4886254569846,-34.5555159953725,30408750/17,16-55-180-029,2019-07-30,DONADO 3986,DONADO 3986,Obra Mayor,935.86,DONADO,3986,Saavedra,12,Comuna 12,1430,C1430DTB
-58.4893430188131,-34.5504785638255,3200181/17,16-55-215-20,2019-07-22,PLAZA 4478,PLAZA 4478,Obra Mayor,105.94,PLAZA,4478,Saavedra,12,Comuna 12,1430,C1430DJD
-58.4906246223078,-34.5553245463516,26241187/19,16-55-167-01,2019-09-20,R.BALBIN 4198,"BALBIN, RICARDO, DR. AV. 4198",Micro Obra,,"BALBIN, RICARDO, DR. AV.",4198,Saavedra,12,Comuna 12,1430,C1430AAZ
-58.4808778769291,-34.5471782457006,35170681/18,2-24-102-026,2019-08-28,R.FREIRE 4380,"FREIRE, RAMON, CAP. GRAL. 4380",Obra Menor,346,"FREIRE, RAMON, CAP. GRAL.",4380,Saavedra,12,Comuna 12,1429,C1429ATD
-58.4827670900091,-34.5487652692897,6619558/18,16-43-49a-14,2019-06-11,R.HUIDOBRO 3457,RUIZ HUIDOBRO 3457,Obra Menor,437.15,RUIZ HUIDOBRO,3457,Saavedra,12,Comuna 12,1430,C1430CJB
-58.4931126201525,-34.5545550064086,14253239/19,16-55-140-1B,2019-08-15,R.HUIDOBRO 4610,RUIZ HUIDOBRO AV. 4610,Micro Obra,,RUIZ HUIDOBRO AV.,4610,Saavedra,12,Comuna 12,1430,C1430CKR
-58.4789534642051,-34.5526773194354,26829318/18,16-43-57-10C,2019-08-07,SUPERI 3745,SUPERI 3745,Obra Menor,347.95,SUPERI,3745,Saavedra,12,Comuna 12,1430,C1430FFG
-58.4833680354286,-34.5467072426851,3981582/19,16-43-63-22,2019-07-12,SUPERI 4531,SUPERI 4531,Obra Mayor,652.85,SUPERI,4531,Saavedra,12,Comuna 12,1430,C1430FGI
-58.4841201354545,-34.5567275561318,29897617/17,16-55-221-007,2019-06-28,TRONADOR 3658,TRONADOR 3658,Obra Media,775.13,TRONADOR,3658,Saavedra,12,Comuna 12,1430,C1430DMP
-58.4865622772528,-34.5533523462436,34459106/18,16-55-226-24,2019-07-29,TRONADOR 4072,TRONADOR 4072,Obra Mayor,607.68,TRONADOR,4072,Saavedra,12,Comuna 12,1430,C1430DMX
-58.4839302908891,-34.5511104887644,32689807/18,15-43-21c-05,2019-06-07,WASHINGTON 4145,WASHINGTON 4145,Obra Media,699.12,WASHINGTON,4145,Saavedra,12,Comuna 12,1430,C1430EVG
-58.3936585030051,-34.6219517062788,35035398/18,8-22-58-7,2019-09-20,SARANDI 1118/20,SARANDI 1118,Obra Menor,119.3,SARANDI,1118,San Cristobal,3,Comuna 3,1222,C1222ACN
-58.4092172243027,-34.6288306900399,10121213/18,08-30-42-6B,2019-07-31,PAVON 3156/64,PAVON 3156,Obra Mayor,3671.27,PAVON,3156,San Cristobal,3,Comuna 3,1253,C1253AAP
-58.3989067661369,-34.6274645114973,30307005/18,08-22-014-005,2019-07-18,MATHEU 1521/55,MATHEU 1521,Obra Mayor,24208.92,MATHEU,1521,San Cristobal,3,Comuna 3,1249,C1249AAG
-58.402330883197,-34.6221722236715,20577839/19,8-22-7-20B,2019-06-28,JUJUY 1084/86,JUJUY AV. 1084,Micro Obra,6.53,JUJUY AV.,1084,San Cristobal,3,Comuna 3,1229,C1229ABS
-58.4026746701065,-34.6220724061854,18345636/16,08-30-95-42,2019-06-26,JUJUY 1071/73,JUJUY AV. 1071,Obra Menor,498.6,JUJUY AV.,1071,San Cristobal,3,Comuna 3,1229,C1229ABF
-58.4089267618183,-34.6202020218881,10847252/16,8-30-67-9/10,2019-08-13,INDEPEND.3086/90,INDEPENDENCIA AV. 3086,Micro Obra,,INDEPENDENCIA AV.,3086,San Cristobal,3,Comuna 3,1225,C1225AAZ
-58.3943524211195,-34.6220105734283,34338346/18,08-22.50-04,2019-09-30,HUMBERTO 1º 2028/30,HUMBERTO 1° 2028,Micro Obra,14.93,HUMBERTO 1\u00b0,2028,,3,,,
-58.3943524211195,-34.6220105734283,34338346/18,08-22.50-04,2019-09-30,HUMBERTO 1º 2028/30,HUMBERTO 1° 2028,Micro Obra,14.93,HUMBERTO 1\u00b0,2028,,3,,,
-58.4012102953834,-34.6191238600139,34188016/18,8-22-13-1c,2019-09-27,ALBERTI 827/29,ALBERTI 827,Obra Menor,34.93,ALBERTI,827,San Cristobal,3,Comuna 3,1223,C1223AAG
-58.4102261440412,-34.6293574872497,33574165/18,8-30-32-28a,2019-07-24,24 DE NOV.1541/55,24 DE NOVIEMBRE 1541,Obra Mayor,6611.39,24 DE NOVIEMBRE,1541,San Cristobal,3,Comuna 3,1242,C1242AAG
-58.400747183563,-34.6216831731583,26881239/18,8-22-11-30A,2019-06-05,ALBERTI 1065/83,ALBERTI 1065,Obra Mayor,3854.3,ALBERTI,1065,San Cristobal,3,Comuna 3,1223,C1223AAK
-58.4049020097398,-34.6206575043407,34789631/18,08-30-85-45,2019-06-07,CATAMARCA 931,CATAMARCA 931,Obra Media,1395.37,CATAMARCA,931,San Cristobal,3,Comuna 3,1231,C1231AAI
-58.403708835006,-34.6191122843525,13651004/19,07-30-097-02,2019-06-18,INDEPEND.2708,INDEPENDENCIA AV. 2708,Micro Obra,,INDEPENDENCIA AV.,2708,San Cristobal,3,Comuna 3,1225,C1225AAW
-58.3984162351177,-34.6273420864801,24637912/18,8-22-22-13,2019-06-14,PAVON 2384,PAVON 2384,Obra Media,1374.54,PAVON,2384,San Cristobal,3,Comuna 3,1248,C1248AAS
-58.3698498107355,-34.5996353165924,21816906/19,14-1-63-21,2019-09-20,VIAMONTE 154/56,VIAMONTE 154,Obra Menor,52.59,VIAMONTE,154,San Nicolas,1,Comuna 1,1053,C1053ABD
-58.3886510532535,-34.6086340426907,2931276/16,14-5-19-16,2019-09-30,RIVADAVIA 1561/63,RIVADAVIA AV. 1561,Micro Obra,,RIVADAVIA AV.,1561,San Nicolas,1,Comuna 1,1033,C1033AAF
-58.3904456473727,-34.6073371644823,32917965/18,14-05-10-20,2019-08-08,R.PEÑA 149/51,RODRIGUEZ PEÑA 149,Obra Media,2187.49,RODRIGUEZ PEÑA,149,,1,,,
-58.3837027892613,-34.606515697448,21830073/19,14-005-044-008,2019-08-20,LIBERTAD 174/92,LIBERTAD 174,Micro Obra,,LIBERTAD,174,San Nicolas,1,Comuna 1,1012,C1012AAD
-58.3704925129418,-34.6068645539444,13793101/18,014-001-049-004,2019-07-15,L.N.ALEM 30/36,"ALEM, LEANDRO N. AV. 30",Obra Mayor,654.18,"ALEM, LEANDRO N. AV.",30,San Nicolas,1,Comuna 1,1003,C1003AAN
-58.3800681252749,-34.5991960443113,10372443/19,14-005-074-004A,2019-06-07,CORDOBA 924/34,CORDOBA AV. 924,Obra Menor,57.79,CORDOBA AV.,924,San Nicolas,1,Comuna 1,1054,C1054AAV
-58.3745292191304,-34.6054248434486,27741573/19,15-01-027-012AyB,2019-09-25,J.D.PERON 547,"PERON, JUAN DOMINGO, TTE. GENERAL 547",Micro Obra,,"PERON, JUAN DOMINGO, TTE. GENERAL",547,San Nicolas,1,Comuna 1,1038,C1038AAK
-58.3773562623785,-34.6008489875903,16302385/19,14-01-15-022,2019-06-27,TUCUMAN 737,TUCUMAN 737,Micro Obra,,TUCUMAN,737,San Nicolas,1,Comuna 1,1049,C1049AAO
-58.3716211730117,-34.6237026262494,10694397/19,04-025-026,2019-08-28,DEFENSA 1357/61,DEFENSA 1357,Obra Media,1698.65,DEFENSA,1357,San Telmo,1,Comuna 1,1143,C1143AAC
-58.3719425803752,-34.622905844842,27286417/18,12-04-26-32A,2019-07-12,COCHABAMBA 441/49,COCHABAMBA 441,Obra Mayor,18.3,COCHABAMBA,441,San Telmo,1,Comuna 1,1150,C1150AAE
-58.3705899920214,-34.6231764436569,18184115/17,12-4-31-8/9/10/15,2019-06-12,COCHABAMBA 354/70,COCHABAMBA 354,Micro Obra,,COCHABAMBA,354,San Telmo,1,Comuna 1,1150,C1150AAD
-58.3721963821866,-34.6252606102462,30344210/18,03-08-56-16A,2019-07-12,BRASIL 469/79,BRASIL 469,Obra Mayor,3323.11,BRASIL,469,San Telmo,1,Comuna 1,1154,C1154AAE
-58.3707207802806,-34.6240226961961,33615779/18,12-4-31-24b,2019-09-27,J.DE GARAY 371,"GARAY, JUAN DE AV. 371",Obra Media,1228.85,"GARAY, JUAN DE AV.",371,San Telmo,1,Comuna 1,1153,C1153ABB
-58.3770747685818,-34.6201092064654,34201930/18,12-04-10-15,2019-07-15,PIEDRAS 1040,PIEDRAS 1040,Obra Media,844,PIEDRAS,1040,San Telmo,1,Comuna 1,1070,C1070AAV
-58.371766553996,-34.6221380976379,14294946/19,12-004-026-002e,2019-08-16,SAN JUAN 432,SAN JUAN AV. 432,Obra Media,2345.4,SAN JUAN AV.,432,San Telmo,1,Comuna 1,1147,C1147AAP
-58.4860277592556,-34.6349744789798,26421325/18,1-54-095-009c,2019-07-25,RIVADAVIA 8676/80,RIVADAVIA AV. 8676,Obra Mayor,3608.44,RIVADAVIA AV.,8676,Velez Sarsfield,10,Comuna 10,1407,C1407DYV
-58.4877110290129,-34.6335801368909,26926273/19,01-77-46-32,2019-09-26,BELEN 146/48,BELEN 146,Obra Menor,193.95,BELEN,146,Velez Sarsfield,10,Comuna 10,1407,C1407ASB
-58.4875343273237,-34.6311165694311,35155488/18,1-77-69-10a,2019-06-10,AVELLANEDA 4298,AVELLANEDA 4298,Obra Menor,80.87,AVELLANEDA,4298,Velez Sarsfield,10,Comuna 10,1407,C1407EJW
-58.5020665310583,-34.6262569920737,33654980/18,15-85-33b-9,2019-06-06,CAMARONES 4950/52,CAMARONES 4950,Obra Menor,192.41,CAMARONES,4950,Velez Sarsfield,10,Comuna 10,1407,C1407FNH
-58.4975334071825,-34.631914734498,17487406/17,1-77-20-31a,2019-06-05,MORON 4855/63,MORON 4855,Obra Media,857.31,MORON,4855,Velez Sarsfield,10,Comuna 10,1407,C1407EOE
-58.4938992187871,-34.6268091376459,22115043/19,15-85-89-038,2019-08-29,TUPAC AMARU 1088,TUPAC AMARU 1088,Obra Menor,108.79,TUPAC AMARU,1088,Velez Sarsfield,10,Comuna 10,1407,C1407CXD
-58.5237524589148,-34.6271598666234,16740694/19,15-93-77-3,2019-07-02,SANTO TOME 6238,SANTO TOME 6238,Micro Obra,,SANTO TOME,6238,Versalles,10,Comuna 10,1408,C1408AYT
-58.4401423652034,-34.5979721497481,30888661/18,18-031-004-011,2019-06-27,ACEVEDO 435,ACEVEDO 435,Obra Media,1124.56,ACEVEDO,435,Villa Crespo,15,Comuna 15,1414,C1414DJI
-58.4396311236123,-34.5921726430335,19992309/19,18-31-46-22,2019-09-17,URIARTE 868/70,URIARTE 868,Obra Media,693.73,URIARTE,868,Villa Crespo,15,Comuna 15,1414,C1414DAB
-58.4412552588486,-34.593939454024,9276237/18,18-31-21-22,2019-08-21,THAMES 684/86,THAMES 684,Micro Obra,,THAMES,684,Villa Crespo,15,Comuna 15,1414,C1414DCN
-58.4566857592684,-34.5992310070772,27012491/19,15-47-12-10,2019-09-23,PAYSANDU 2251/55,PAYSANDU 2251,Obra Media,631.18,PAYSANDU,2251,Villa Crespo,15,Comuna 15,1416,C1416CDW
-58.4559306659916,-34.6024679160444,29642210/17,15-59-186-10a,2019-09-16,J.B.JUSTO 3675/95,"JUSTO, JUAN B. AV. 3675",Obra Mayor,3029.81,"JUSTO, JUAN B. AV.",3675,Villa Crespo,15,Comuna 15,1416,C1416DJD
-58.4325684111664,-34.5977076086353,6203156/18,18-31-50-35,2019-07-12,CASTILLO 246/48,CASTILLO 246,Micro Obra,,CASTILLO,246,Villa Crespo,15,Comuna 15,1414,C1414AWF
-58.4390556910052,-34.605020694634,35350354/18,15-47-128-23,2019-06-11,A.GALLARDO 573/75,"GALLARDO, ANGEL AV. 573",Obra Mayor,3952.03,"GALLARDO, ANGEL AV.",573,Villa Crespo,15,Comuna 15,1405,C1405DJF
-58.4557172213714,-34.5990528056048,28974028/18,15-47-24-22,2019-09-26,CASAFOUST 677,CASAFOUST 677,Obra Menor,141.34,CASAFOUST,677,Villa Crespo,15,Comuna 15,1416,C1416EEC
-58.4469365134477,-34.6061319829187,9393900/18,15-47-27-2,2019-07-01,H. PUEYRREDON 1210,"PUEYRREDON, HONORIO, DR. AV. 1210",Micro Obra,,"PUEYRREDON, HONORIO, DR. AV.",1210,Villa Crespo,15,Comuna 15,1414,C1414CEO
-58.4519120940642,-34.6007435409968,11062666/19,15-47-33B-02,2019-06-25,H.PUEYRREDON 1850,"PUEYRREDON, HONORIO, DR. AV. 1850",Micro Obra,,"PUEYRREDON, HONORIO, DR. AV.",1850,Villa Crespo,15,Comuna 15,1414,C1414CEU
-58.4314547036228,-34.5973787794954,32215760/18,"18,31-62-28",2019-07-12,J.ALVAREZ 864,"ALVAREZ, JULIAN 864",Obra Mayor,1453.05,"ALVAREZ, JULIAN",864,Villa Crespo,15,Comuna 15,1414,C1414DRR
-58.4557317023252,-34.6043558409679,24052656/18,15-59-174-10,2019-09-20,R.E.DE S.MARTIN 1006,"ESCALADA DE SAN MARTIN, R. 1006",Obra Mayor,3238.05,"ESCALADA DE SAN MARTIN, R.",1006,Villa Crespo,15,Comuna 15,1416,C1416CVL
-58.4509038234586,-34.6005643895761,31390594/18,15-47-51-19,2019-08-29,R.E.DE SAN MARTIN 461,"ESCALADA DE SAN MARTIN, R. 461",Obra Menor,112.15,"ESCALADA DE SAN MARTIN, R.",461,Villa Crespo,15,Comuna 15,1414,C1414DYC
-58.4435857439374,-34.5969317328677,33175445/18,15-47-176-23,2019-07-01,SERRANO 416,SERRANO 416,Obra Media,902,SERRANO,416,Villa Crespo,15,Comuna 15,1414,C1414DEJ
-58.447705231002,-34.6032994575847,23420769/19,15-47-48-21B,2019-09-30,V.VIRASORO 1606,"VIRASORO, VALENTIN 1606",Obra Menor,61.29,"VIRASORO, VALENTIN",1606,Villa Crespo,15,Comuna 15,1414,C1414CDL
-58.4350202046816,-34.6021021876619,21306190/19,15-47-185-37,2019-07-31,VERA 138,VERA 138,Obra Mayor,88.1,VERA,138,Villa Crespo,15,Comuna 15,1414,C1414AOD
-58.5000899293189,-34.6034645899064,5786679/19,15-81-116-11,2019-09-30,TINOGASTA 3630/34,TINOGASTA 3630,Obra Menor,124.23,TINOGASTA,3630,Villa Del Parque,11,Comuna 11,1417,C1417EIH
-58.5000899293189,-34.6034645899064,5786679/19,15-81-116-11,2019-09-30,TINOGASTA 3630/34,TINOGASTA 3630,Obra Menor,124.23,TINOGASTA,3630,Villa Del Parque,11,Comuna 11,1417,C1417EIH
-58.4939490945308,-34.5995463156695,14070867/19,15-71-22-08,2019-07-31,TINOGASTA 3068/72,TINOGASTA 3068,Obra Mayor,1200.62,TINOGASTA,3068,Villa Del Parque,11,Comuna 11,1417,C1417EHN
-58.4939080381759,-34.6085787905485,8662356/19,15-91-124A-11,2019-07-22,T.VILARDEBO 2406/10,"VILARDEBO, TEODORO 2406",Obra Mayor,236.71,"VILARDEBO, TEODORO",2406,Villa Del Parque,11,Comuna 11,1417,C1417AHH
-58.4986097244062,-34.6069035690178,34350415/18,15-81-98A-4,2019-08-07,NOGOYA 3724/26,NOGOYA 3724,Obra Media,610.95,NOGOYA,3724,Villa Del Parque,11,Comuna 11,1417,C1417FNT
-58.49650255076,-34.6039997519172,20820446/19,15-81-138-25,2019-09-30,LLAVALLOL 2846/50,LLAVALLOL 2846,Obra Menor,131.66,LLAVALLOL,2846,Villa Del Parque,11,Comuna 11,1417,C1417AEP
-58.480863672244,-34.599593078291,31377279/18,15-69-84-14a,2019-09-30,EMPEDRADO 2346/72,EMPEDRADO 2346,Obra Mayor,5803.72,EMPEDRADO,2346,Villa Del Parque,11,Comuna 11,1417,C1417GIB
-58.5025415724306,-34.6004542665921,27387146/18,15-81-120-006,2019-07-12,BEIRO 3550/54,"BEIRO, FRANCISCO AV. 3550",Obra Mayor,2129.21,"BEIRO, FRANCISCO AV.",3550,Villa Del Parque,11,Comuna 11,1419,C1419HYW
-58.4805571622534,-34.6014915442976,19046591/19,15-69-70-42,2019-07-22,A.BUFANO 2772/74,"BUFANO, ALFREDO R. 2772",Obra Mayor,272.51,"BUFANO, ALFREDO R.",2772,Villa Del Parque,11,Comuna 11,1417,C1417DMF
-58.4945169881707,-34.6102806478534,23911675/18,15-81-109-28,2019-06-04,ARREGUI 3601/09,ARREGUI 3601,Obra Menor,199.06,ARREGUI,3601,Villa Del Parque,11,Comuna 11,1417,C1417GNA
-58.4834353081419,-34.6023859152679,16708959/19,15-69-045A-2,2019-09-10,BOLIVIA 2724,ESTADO PLURINACIONAL DE BOLIVIA 2724,Obra Menor,220.21,ESTADO PLURINACIONAL DE BOLIVIA,2724,Villa Del Parque,11,Comuna 11,1417,C1417DCH
-58.4972303325315,-34.6009335011661,15993033/19,15-81-169-16C,2019-06-26,CAMPANA 3231,CAMPANA 3231,Obra Media,2014.26,CAMPANA,3231,Villa Del Parque,11,Comuna 11,1417,C1417ADA
-58.4811422996066,-34.6069562353264,35422023/18,15-69-040B-013,2019-08-30,CONDARCO 2341,CONDARCO 2341,Obra Media,605.36,CONDARCO,2341,Villa Del Parque,11,Comuna 11,1416,C1416AQY
-58.4948517377229,-34.603073617103,34788312/18,15-81-165-25a,2019-06-25,MELINCUE 3241,MELINCUE 3241,Obra Media,1134.2,MELINCUE,3241,Villa Del Parque,11,Comuna 11,1417,C1417FHG
-58.4843247278214,-34.6084259103736,11807435/18,15-69-15-40,2019-07-01,NAZCA 2358,NAZCA AV. 2358,Obra Menor,149,NAZCA AV.,2358,Villa Del Parque,11,Comuna 11,1416,C1416ASZ
-58.496256301518,-34.6056385048712,23481814/18,15-81-136-9B,2019-06-11,NOGOYA 3500,NOGOYA 3500,Obra Media,806.45,NOGOYA,3500,Villa Del Parque,11,Comuna 11,1417,C1417FNN
-58.4807432996765,-34.6070447129193,8428522/19,15-69-40B-22,2019-07-19,PERNAMBUCO 2320,PERNAMBUCO 2320,Obra Mayor,231.28,PERNAMBUCO,2320,Villa Del Parque,11,Comuna 11,1416,C1416APF
-58.4939490945308,-34.5995463156695,14070867/19,15-71-22-08,2019-06-06,TINOGASTA 3068/72,TINOGASTA 3068,Obra Media,956.63,TINOGASTA,3068,Villa Del Parque,11,Comuna 11,1417,C1417EHN
-58.5192678030235,-34.5992770432008,16296200/19,15-83-13-78,2019-07-12,VALLEJOS 4386/90,VALLEJOS 4386,Obra Mayor,284.5,VALLEJOS,4386,Villa Devoto,11,Comuna 11,1419,C1419GLH
-58.5042488609132,-34.5940124701101,34795608/18,15-83-218-005C,2019-07-31,SAN MARTIN 6329/37,SAN MARTIN AV. 6329,Obra Mayor,1830.87,SAN MARTIN AV.,6329,Villa Devoto,11,Comuna 11,1419,C1419ICA
-58.5052648311908,-34.5994706674578,3518657/19,15-83-142-002a,2019-07-25,S.LOPEZ 3626/28,"SOLANO LOPEZ, F., MARISCAL 3626",Obra Mayor,130.55,"SOLANO LOPEZ, F., MARISCAL",3626,Villa Devoto,11,Comuna 11,1419,C1419HRP
-58.5014313820961,-34.5968321612325,26433159/18,15-83-211-31A,2019-09-25,S.LOPEZ 3329/31,"SOLANO LOPEZ, F., MARISCAL 3329",Micro Obra,10.88,"SOLANO LOPEZ, F., MARISCAL",3329,Villa Devoto,11,Comuna 11,1419,C1419HRI
-58.5080330452555,-34.5915356899576,26581680/19,15-83-198-31,2019-08-29,LLAVALLOLM 4580,LLAVALLOL 4580,Micro Obra,,LLAVALLOL,4580,Villa Devoto,11,Comuna 11,1419,C1419AKL
-58.5094832295195,-34.5898959473359,22007540/19,15-83-200A-27,2019-07-23,LLAVALLOL 4766/68,LLAVALLOL 4766,Obra Mayor,472.29,LLAVALLOL,4766,Villa Devoto,11,Comuna 11,1419,C1419AKP
-58.51527465273,-34.5937785568976,33318642/18,15-083-112-022a,2019-09-10,MOSCONI 3851/55,MOSCONI GENERAL AV. 3851,Obra Mayor,5743.22,MOSCONI GENERAL AV.,3851,Villa Devoto,11,Comuna 11,1419,C1419ERE
-58.522185002768,-34.6108839469204,34802241/18,15-089-051-037a,2019-06-26,NAVARRO 5049/51,NAVARRO 5049,Obra Mayor,853.44,NAVARRO,5049,Villa Devoto,11,Comuna 11,1419,C1419HUW
-58.5138015397687,-34.5852303838775,25957091/18,17-83-206-40,2019-07-12,LAVALLOL 5370,LLAVALLOL 5370,Obra Mayor,6031,LLAVALLOL,5370,Villa Devoto,11,Comuna 11,1419,C1419ALD
-58.5234917171509,-34.6151393530323,32622911/18,15-87-13-32,2019-08-29,L.DE VEGA 2939/43,LOPE DE VEGA AV. 2939,Obra Media,1836.45,LOPE DE VEGA AV.,2939,Villa Devoto,11,Comuna 11,1417,C1417CPB
-58.5148464276404,-34.5929784838469,25638360/19,15-83-112-7,2019-09-24,J.V.GONZALEZ 4776/78,"GONZALEZ, JOAQUIN V. 4776",Obra Menor,298.54,"GONZALEZ, JOAQUIN V.",4776,Villa Devoto,11,Comuna 11,1419,C1419AYH
-58.5150915365096,-34.5887631219614,10477531/19,15-83-159A-18,2019-08-07,J.L.CABEZON 3625/29,"CABEZON, JOSE LEON 3625",Micro Obra,,"CABEZON, JOSE LEON",3625,Villa Devoto,11,Comuna 11,1419,C1419FCU
-58.5091415715626,-34.5880572706893,22382568/18,15-83-225-2,2019-08-08,GRIVEO 3308/10,GRIVEO 3308,Obra Menor,196.33,GRIVEO,3308,Villa Devoto,11,Comuna 11,1419,C1419EVX
-58.5171274335808,-34.6096016819287,35311195/18,15-87-71-13,2019-08-30,F.BEIRO 4744/50,"BEIRO, FRANCISCO AV. 4744",Obra Mayor,4987.07,"BEIRO, FRANCISCO AV.",4744,Villa Devoto,11,Comuna 11,1419,C1419HZW
-58.5155253350935,-34.5873006339852,12001990/19,15-83-182B-006B,2019-09-26,E.LAMARCA 5281/85,"LAMARCA, EMILIO 5281",Obra Menor,113.21,"LAMARCA, EMILIO",5281,Villa Devoto,11,Comuna 11,1419,C1419ASU
-58.5191890092528,-34.6146412787771,13170769/19,15-87-25A-004,2019-09-13,CERVANTES 2950/52,CERVANTES 2950,Micro Obra,,CERVANTES,2950,Villa Devoto,11,Comuna 11,1417,C1417CBV
-58.5180444218276,-34.6153657684001,22512410/16,15-87-24A-33,2019-07-11,CERVANTES 2826/30,CERVANTES 2826,Obra Mayor,56.9,CERVANTES,2826,Villa Devoto,11,Comuna 11,1417,C1417CBT
-58.5112524194898,-34.6051394868046,32687844/18,15-83-20-12a,2019-06-11,BEIRO 4237/55,"BEIRO, FRANCISCO AV. 4237",Obra Mayor,4368.81,"BEIRO, FRANCISCO AV.",4237,Villa Devoto,11,Comuna 11,1419,C1419HZE
-58.5043868171332,-34.6063263132106,26284842/18,11-81-75B-9,2019-06-06,B.BLANCA 3061,BAHIA BLANCA 3061,Obra Menor,206.37,BAHIA BLANCA,3061,Villa Devoto,11,Comuna 11,1417,C1417ASS
-58.5088148092322,-34.6019358498159,33956212/18,15-83-80-3,2019-07-12,B.BLANCA 3658,BAHIA BLANCA 3658,Obra Mayor,315.82,BAHIA BLANCA,3658,Villa Devoto,11,Comuna 11,1419,C1419BAB
-58.5118578780181,-34.5903888341475,33509285/18,15-83-178B-24,2019-07-11,BACON 4828,BACON 4828,Obra Mayor,195.31,BACON,4828,Villa Devoto,11,Comuna 11,1419,C1419AQB
-58.5042311563778,-34.6086508106659,15951700/19,15-81-47-19,2019-09-20,CHIVILCOY 2730,CHIVILCOY 2730,Obra Menor,247.5,CHIVILCOY,2730,Villa Devoto,11,Comuna 11,1417,C1417ATP
-58.5168714166667,-34.6194002537764,18759890/19,15-87-6A-14,2019-07-18,COLIQUEO 2261,COLIQUEO 2261,Obra Mayor,271.76,COLIQUEO,2261,Villa Devoto,11,Comuna 11,1417,C1417CLE
-58.5159272767004,-34.5874352659,32764607/18,15-83-160A-02,2019-07-16,FRANCO 3616,FRANCO 3616,Obra Mayor,80.46,FRANCO,3616,Villa Devoto,11,Comuna 11,1419,C1419FIR
-58.5200331661858,-34.5938983297892,17396004/19,15-88-60-12,2019-07-31,GRAL.PAZ 6778,"PAZ, GRAL. AV. 6778",Obra Mayor,761.15,"PAZ, GRAL. AV.",6778,Villa Devoto,11,Comuna 11,1419,C1419FZR
-58.5132161651148,-34.6016587658809,16874144/19,15-83-46-4,2019-08-14,GUALEGUAYCHU 3845,GUALEGUAYCHU 3845,Obra Menor,293.35,GUALEGUAYCHU,3845,Villa Devoto,11,Comuna 11,1419,C1419BKG
-58.5176265283626,-34.5974582500843,10376103/19,15-083-034-028,2019-07-05,GUALEGUAYCHU 4580,GUALEGUAYCHU 4580,Obra Mayor,28.82,GUALEGUAYCHU,4580,Villa Devoto,11,Comuna 11,1419,C1419BLB
-58.520132079129,-34.6006782408399,11992303/19,15-89-59-17,2019-06-27,J.CUBAS 4495,"CUBAS, JOSE 4495",Micro Obra,19.28,"CUBAS, JOSE",4495,Villa Devoto,11,Comuna 11,1419,C1419GOM
-58.5212255843657,-34.6141050072231,12304460/18,15-87-26C-10,2019-08-16,J.P.VARELA 5170,"VARELA, JOSE PEDRO 5170",Obra Menor,66.3,"VARELA, JOSE PEDRO",5170,Villa Devoto,11,Comuna 11,1417,C1417EZF
-58.5121328689108,-34.6124641800809,16853524/19,15-8780A-26,2019-06-26,NAZARRE 4711,NAZARRE 4711,Obra Menor,320.47,NAZARRE,4711,Villa Devoto,11,Comuna 11,1417,C1417DYG
-58.5119774555814,-34.6127651890413,32524593/18,15-87-078A-003,2019-07-11,NAZARRE 4728,NAZARRE 4728,Obra Mayor,85.97,NAZARRE,4728,Villa Devoto,11,Comuna 11,1417,C1417DYH
-58.5022416488585,-34.6092257170213,32920203/18,15-81-58-1e,2019-07-16,NOGOYA 4002,NOGOYA 4002,Obra Mayor,3096.36,NOGOYA,4002,Villa Devoto,11,Comuna 11,1417,C1417FNZ
-58.5190522817796,-34.6070398754908,15965848/19,15-089-078-001B,2019-06-11,P.MORAN 4726,"MORAN, PEDRO 4726",Obra Menor,42.96,"MORAN, PEDRO",4726,Villa Devoto,11,Comuna 11,1419,C1419HLN
-58.5079903751978,-34.6051359140271,18336267/19,15-81-51-14,2019-08-29,P.VARELA 4074,"VARELA, JOSE PEDRO 4074",Micro Obra,18.86,"VARELA, JOSE PEDRO",4074,Villa Devoto,11,Comuna 11,1417,C1417EYJ
-58.5224657308974,-34.6133306903315,19749698/18,87-27-26,2019-09-16,RAMON LISTA 5180,"LISTA, RAMON, CORONEL 5180",Obra Media,1964.29,"LISTA, RAMON, CORONEL",5180,Villa Devoto,11,Comuna 11,1417,C1417FAD
-58.5229955599207,-34.605652798831,33367804/18,15-89-38-15,2019-06-07,S.M.DEL CARRIL 4867,"CARRIL, SALVADOR MARIA DEL AV. 4867",Obra Media,812.43,"CARRIL, SALVADOR MARIA DEL AV.",4867,Villa Devoto,11,Comuna 11,1419,C1419HBD
-58.516100505833,-34.611373515147,14122942/19,15-87-70-00,2019-07-18,SIMBRON 4775,SIMBRON 4775,Obra Mayor,15.22,SIMBRON,4775,Villa Devoto,11,Comuna 11,1417,C1417EVY
-58.5176982783894,-34.5979296725662,38292725/15,15-83-34-19,2019-06-26,VALLEJOS 4253,VALLEJOS 4253,Obra Menor,148.45,VALLEJOS,4253,Villa Devoto,11,Comuna 11,1419,C1419GLE
-58.4611258631752,-34.6115028094841,9460756/17,15-59-64-33b,2019-09-10,D.ALVAREZ 1342/54,"ALVAREZ, DONATO, TTE. GRAL. 1342",Obra Media,1091.83,"ALVAREZ, DONATO, TTE. GRAL.",1342,Villa Gral. Mitre,11,Comuna 11,1416,C1416BTP
-58.4706631996732,-34.6034310714247,21481243/19,15-59-27-4/5/6,2019-09-26,A.JONTE 1930/44,ALVAREZ JONTE 1930,Obra Menor,487.44,ALVAREZ JONTE,1930,Villa Gral. Mitre,11,Comuna 11,1416,C1416EXR
-58.4709720537314,-34.6181702625866,8349921/19,15-67-62-34,2019-08-14,BOLIVIA 1144,ESTADO PLURINACIONAL DE BOLIVIA 1144,Obra Media,1331.8,ESTADO PLURINACIONAL DE BOLIVIA,1144,Villa Gral. Mitre,11,Comuna 11,1416,C1416ANB
-58.474990509779,-34.613137730395,26452376/18,15-67-67-39,2019-06-14,BOLIVIA 1636,ESTADO PLURINACIONAL DE BOLIVIA 1636,Obra Menor,190.65,ESTADO PLURINACIONAL DE BOLIVIA,1636,Villa Gral. Mitre,11,Comuna 11,1416,C1416ANL
-58.469778697257,-34.6067942930464,18162568/14,15-59-10A-21,2019-06-05,CAMARONES 2013/15,CAMARONES 2013,Obra Media,852.86,CAMARONES,2013,Villa Gral. Mitre,11,Comuna 11,1416,C1416ECM
-58.4782933354914,-34.610354572209,15883099/19,15-67-70-16,2019-06-11,CONDARCO 1965,CONDARCO 1965,Obra Menor,484.21,CONDARCO,1965,Villa Gral. Mitre,11,Comuna 11,1416,C1416AQQ
-58.4602269889072,-34.60482774417,30224368/18,015-059-131-028,2019-06-26,F.SARMIENTO 1848,FRAGATA PRES. SARMIENTO 1848,Obra Media,2253.2,FRAGATA PRES. SARMIENTO,1848,Villa Gral. Mitre,11,Comuna 11,1416,C1416CBP
-58.4747665472629,-34.6140261724388,35466987/18,XV-67-66-06,2019-08-08,R.E.DE SAN MARTIN 2650,"ESCALADA DE SAN MARTIN, R. 2650",Obra Media,1202.04,"ESCALADA DE SAN MARTIN, R.",2650,Villa Gral. Mitre,11,Comuna 11,1416,C1416CWN
-58.4974195261077,-34.6395786068849,16477215/17,1-60-134-22,2019-06-28,RAFAELA 4993/95,RAFAELA 4993,Obra Media,884.69,RAFAELA,4993,Villa Luro,10,Comuna 10,1407,C1407GVC
-58.5071228136798,-34.640312491452,16995977/18,1-60-76-29,2019-09-18,PATRON 5455/57,PATRON 5455,Obra Media,1647.66,PATRON,5455,Villa Luro,10,Comuna 10,1408,C1408FAC
-58.4996184987813,-34.6380912026371,20581014/19,1-60-131-15,2019-07-11,MANZONI 45/47,MANZONI 45,Micro Obra,,MANZONI,45,Villa Luro,10,Comuna 10,1407,C1407ICA
-58.5122150415894,-34.6279563200754,24797816/19,15-91-79B-24,2019-08-29,LAGRANGE 1230/36,LAGRANGE 1230,Micro Obra,10.63,LAGRANGE,1230,Villa Luro,10,Comuna 10,1407,C1407CEB
-58.5102806148181,-34.6327437279913,21417648/19,15-91-45-18,2019-08-06,IRIGOYEN 747/49,IRIGOYEN 747,Obra Menor,125.45,IRIGOYEN,747,Villa Luro,10,Comuna 10,1407,C1407CAQ
-58.5012605336031,-34.6427072128581,23428302/19,01-60-93-020,2019-08-14,BASUALDO 480/82,BASUALDO 480,Obra Menor,355.66,BASUALDO,480,Villa Luro,10,Comuna 10,1440,C1440DNB
-58.5037881708473,-34.6398064354166,18338061/19,01-60-95-24,2019-08-16,ACASSUSO 5218/22,ACASSUSO 5218,Micro Obra,15.9,ACASSUSO,5218,Villa Luro,10,Comuna 10,1408,C1408FDD
-58.5087216337408,-34.6353857960756,17983929/19,15-91-036-14,2019-07-12,BACACAY 5769,BACACAY AV. 5769,Obra Mayor,187.23,BACACAY AV.,5769,Villa Luro,10,Comuna 10,1408,C1408AJA
-58.4912476560833,-34.6399783995487,23917836/19,1-054-047B-012,2019-09-10,CAJARAVILLA 4589,CAJARAVILLA 4589,Obra Menor,411.4,CAJARAVILLA,4589,Villa Luro,10,Comuna 10,1407,C1407GWI
-58.4953787571322,-34.6421685573484,20894552/19,1-60-120-13,2019-09-23,DONIZETTI 414,DONIZETTI 414,Obra Menor,94.91,DONIZETTI,414,Villa Luro,10,Comuna 10,1407,C1407IEJ
-58.4979461814177,-34.6434566713744,4706857/19,01-060-100-024,2019-06-06,E.CASTRO 5151/53,"CASTRO, EMILIO AV. 5151",Obra Menor,377.57,"CASTRO, EMILIO AV.",5151,Villa Luro,10,Comuna 10,1440,C1440CLA
-58.5104789133817,-34.6295179075969,35443422/18,15-91-76-7,2019-08-07,V.HUGO 1055,"HUGO, VICTOR 1055",Obra Menor,144.16,"HUGO, VICTOR",1055,Villa Luro,10,Comuna 10,1407,C1407BWS
-58.5004907394301,-34.6442207487015,5559396/17,1-60-81-6,2019-06-05,ZELADA 5376/78,ZELADA 5376,Obra Media,611.57,ZELADA,5376,Villa Luro,10,Comuna 10,1440,C1440BWF
